{ "type":"FeatureCollection", "features": [

{"type":"Feature", "id": 4424, "properties": { "Company": "SEI Investments Co", "Ticker": "SEIC", "Market_Cap": "Mid-Cap ($2B - $10B)", "Street_One":"1 Freedom Valley Drive", "Street_Two":"", "City":"Collegeville", "State":"PA", "Region":"", "Country":"US", "Zip_Code":"19456", "Metro": "Philadelphia, PA",  "url_id": "4dbaaa3f15a4bfe27ee3c4549d7a05d050e20205"}, "geometry": {"type":"Point","coordinates":[-75.4476210000,40.1415170000]}},
{"type":"Feature", "id": 4421, "properties": { "Company": "Verenium Corp", "Ticker": "VRNM", "Market_Cap": "Large-Cap ($10B+)", "Street_One":"3550 John Hopkins Court", "Street_Two":"", "City":"San Diego", "State":"CA", "Region":"", "Country":"US", "Zip_Code":"92121", "Metro": "San Diego, CA",  "url_id": "7b5be9cc03d80d60eef4127e80c5f4953dd332ef"}, "geometry": {"type":"Point","coordinates":[-117.2377150000,32.8928269000]}},
{"type":"Feature", "id": 4420, "properties": { "Company": "BioFuel Energy", "Ticker": "BIOF", "Market_Cap": "Large-Cap ($10B+)", "Street_One":"1600 Broadway", "Street_Two":"", "City":"Denver", "State":"CO", "Region":"", "Country":"US", "Zip_Code":"80202", "Metro": "Denver, CO",  "url_id": "5153fa28c1298b26c50ee95b6381389e2acfdb1c"}, "geometry": {"type":"Point","coordinates":[-104.9872232000,39.7420613000]}},
{"type":"Feature", "id": 4417, "properties": { "Company": "Aviva plc", "Ticker": "AV", "Market_Cap": "Large-Cap ($10B+)", "Street_One":"", "Street_Two":"", "City":"", "State":"", "Region":"", "Country":"", "Zip_Code":"", "Metro": "London, UK",  "url_id": "5c082ce4ddb9d0a3d65203c2163017f64d453afa"}, "geometry": {"type":"Point","coordinates":[0.0000000000,0.0000000000]}},
{"type":"Feature", "id": 4411, "properties": { "Company": "Automatic Data Processing, Inc.", "Ticker": "ADP", "Market_Cap": "Large-Cap ($10B+)", "Street_One":"1 Adp Boulevard", "Street_Two":"", "City":"Roseland", "State":"NJ", "Region":"", "Country":"US", "Zip_Code":"07068", "Metro": "New York, NY",  "url_id": "964434d6035b8ef9d2253a47c0a7042ce443df7c"}, "geometry": {"type":"Point","coordinates":[-74.3093150000,40.8166360000]}},
{"type":"Feature", "id": 4412, "properties": { "Company": "Prudential plc", "Ticker": "PUK", "Market_Cap": "Large-Cap ($10B+)", "Street_One":"12 Arthur Street", "Street_Two":"", "City":"London", "State":"", "Region":"", "Country":"GB", "Zip_Code":"EC4R 9AB", "Metro": "London, UK",  "url_id": "007d83a996552a55e05232a8511c96b836e6b1ca"}, "geometry": {"type":"Point","coordinates":[-0.0881117999,51.5102536000]}},
{"type":"Feature", "id": 4413, "properties": { "Company": "Liberty Ventures", "Ticker": "LVNTA", "Market_Cap": "Large-Cap ($10B+)", "Street_One":"12300 Liberty Boulevard", "Street_Two":"", "City":"Englewood", "State":"CO", "Region":"", "Country":"US", "Zip_Code":"80112", "Metro": "Denver, CO",  "url_id": "99e435114400a69076d43da888698db79a84bbe2"}, "geometry": {"type":"Point","coordinates":[-104.8447530000,39.5533427000]}},
{"type":"Feature", "id": 4414, "properties": { "Company": "Canon Inc.", "Ticker": "CAJ", "Market_Cap": "Large-Cap ($10B+)", "Street_One":"", "Street_Two":"", "City":"", "State":"", "Region":"", "Country":"", "Zip_Code":"", "Metro": "Tokyo, JP",  "url_id": "c07de2c4edce1332fce6d2ac534a0ce520fc48f0"}, "geometry": {"type":"Point","coordinates":[0.0000000000,0.0000000000]}},
{"type":"Feature", "id": 4415, "properties": { "Company": "Statoil ASA", "Ticker": "STO", "Market_Cap": "Large-Cap ($10B+)", "Street_One":"50 Forusbeen", "Street_Two":"", "City":"Stavanger", "State":"ROGALAND", "Region":"", "Country":"NO", "Zip_Code":"4033", "Metro": "Oslo, NO",  "url_id": "5b3e43d47454fb719b521da76c075c55f0a1309f"}, "geometry": {"type":"Point","coordinates":[5.7193411000,58.8930352000]}},
{"type":"Feature", "id": 4416, "properties": { "Company": "China Life Insurance Co. Ltd.", "Ticker": "LFC", "Market_Cap": "Large-Cap ($10B+)", "Street_One":"Zhongjingji Road", "Street_Two":"", "City":"Beijing", "State":"BEIJING", "Region":"", "Country":"CN", "Zip_Code":"100140", "Metro": "Beijing, CN",  "url_id": "b5f341c060a614c861cf0ca3222f190c6d823811"}, "geometry": {"type":"Point","coordinates":[116.3679120000,39.9094750000]}},
{"type":"Feature", "id": 4408, "properties": { "Company": "Manulife Financial Corporation", "Ticker": "MFC", "Market_Cap": "Large-Cap ($10B+)", "Street_One":"200 Bloor Street East", "Street_Two":"", "City":"Toronto", "State":"ON", "Region":"", "Country":"CA", "Zip_Code":"M4W", "Metro": "Toronto, ON",  "url_id": "09ebb00114923ed0a3285dbf9cdd4e160dd5917c"}, "geometry": {"type":"Point","coordinates":[-79.3824877999,43.6721772000]}},
{"type":"Feature", "id": 4409, "properties": { "Company": "Sasol Ltd.", "Ticker": "SSL", "Market_Cap": "Large-Cap ($10B+)", "Street_One":"1 Sturdee Avenue", "Street_Two":"", "City":"Johannesburg", "State":"GP", "Region":"", "Country":"ZA", "Zip_Code":"2196", "Metro": "Johannesburg, ZA",  "url_id": "7076d25f76b56153de58367593482ac1d059a0c9"}, "geometry": {"type":"Point","coordinates":[28.0373400000,-26.1487000000]}},
{"type":"Feature", "id": 4418, "properties": { "Company": "Brookfield Asset Management Inc.", "Ticker": "BAM", "Market_Cap": "Large-Cap ($10B+)", "Street_One":"181 Bay Street", "Street_Two":"", "City":"Toronto", "State":"ON", "Region":"", "Country":"CA", "Zip_Code":"M5J 2T3", "Metro": "Toronto, ON",  "url_id": "a65399a21f2153d3cafa3f3fa327802ed83b6102"}, "geometry": {"type":"Point","coordinates":[-79.3793494000,43.6469494000]}},
{"type":"Feature", "id": 4410, "properties": { "Company": "ING Groep NV", "Ticker": "ING", "Market_Cap": "Large-Cap ($10B+)", "Street_One":"888 Bijlmerplein", "Street_Two":"", "City":"Amsterdam", "State":"NH", "Region":"", "Country":"NL", "Zip_Code":"1102", "Metro": "Amsterdam, NL",  "url_id": "326d15f175efdf123781d81982780e66c85a0d06"}, "geometry": {"type":"Point","coordinates":[4.9493182000,52.3129445000]}},
{"type":"Feature", "id": 4397, "properties": { "Company": "Verisk Analytics, Inc.", "Ticker": "VRSK", "Market_Cap": "Large-Cap ($10B+)", "Street_One":"545 Washington Boulevard", "Street_Two":"", "City":"Jersey City", "State":"NJ", "Region":"", "Country":"US", "Zip_Code":"07310", "Metro": "New York, NY",  "url_id": "0d83fd4e867002ecefe11e2ab43e152228a40ff7"}, "geometry": {"type":"Point","coordinates":[-74.0347920000,40.7277200000]}},
{"type":"Feature", "id": 4405, "properties": { "Company": "The McGraw-Hill Companies, Inc.", "Ticker": "MHP", "Market_Cap": "Large-Cap ($10B+)", "Street_One":"1221 Avenue Of The Americas", "Street_Two":"", "City":"New York", "State":"NY", "Region":"", "Country":"US", "Zip_Code":"10020", "Metro": "New York, NY",  "url_id": "0161cc7147046a475dd3af14a4c5044e3acb8dfa"}, "geometry": {"type":"Point","coordinates":[-73.9818088999,40.7593840000]}},
{"type":"Feature", "id": 4402, "properties": { "Company": "Paychex, Inc.", "Ticker": "PAYX", "Market_Cap": "Large-Cap ($10B+)", "Street_One":"911 Panorama Trail South", "Street_Two":"", "City":"Rochester", "State":"NY", "Region":"", "Country":"US", "Zip_Code":"14625", "Metro": "Rochester, NY",  "url_id": "b23f7e1126d0d6cffd473c931a2333a98e846559"}, "geometry": {"type":"Point","coordinates":[-77.4934169000,43.1253460000]}},
{"type":"Feature", "id": 4401, "properties": { "Company": "AEGON N.V.", "Ticker": "AEG", "Market_Cap": "Large-Cap ($10B+)", "Street_One":"50 Aego Nplein", "Street_Two":"", "City":"The Hague", "State":"ZH", "Region":"", "Country":"NL", "Zip_Code":"2591 TV", "Metro": "Amsterdam, NL",  "url_id": "832db99050c0cf5a22d328e83fbe2713169095b3"}, "geometry": {"type":"Point","coordinates":[4.3694613000,52.0915660000]}},
{"type":"Feature", "id": 4400, "properties": { "Company": "Reed Elsevier NV", "Ticker": "ENL", "Market_Cap": "Large-Cap ($10B+)", "Street_One":"29 Radarweg", "Street_Two":"", "City":"Amsterdam", "State":"NH", "Region":"", "Country":"NL", "Zip_Code":"1043", "Metro": "Amsterdam, NL",  "url_id": "6d6148b22c9138e4cc472235295f3fd63ad8748e"}, "geometry": {"type":"Point","coordinates":[4.8365981000,52.3932559000]}},
{"type":"Feature", "id": 4399, "properties": { "Company": "Fidelity National Information Services, Inc.", "Ticker": "FIS", "Market_Cap": "Large-Cap ($10B+)", "Street_One":"601 Riverside Avenue", "Street_Two":"", "City":"Jacksonville", "State":"FL", "Region":"", "Country":"US", "Zip_Code":"32204", "Metro": "Jacksonville, FL",  "url_id": "e531fca469cc741adb16ca4fc46482ca202dc3e3"}, "geometry": {"type":"Point","coordinates":[-81.6745540000,30.3189620000]}},
{"type":"Feature", "id": 4398, "properties": { "Company": "Fiserv, Inc.", "Ticker": "FISV", "Market_Cap": "Large-Cap ($10B+)", "Street_One":"255 Fiserv Drive", "Street_Two":"", "City":"Brookfield", "State":"WI", "Region":"", "Country":"US", "Zip_Code":"53045", "Metro": "Milwaukee, WI",  "url_id": "f6471c2493ec96408bafe8095a89ab4be2cd970f"}, "geometry": {"type":"Point","coordinates":[-88.1400295999,43.0333815000]}},
{"type":"Feature", "id": 4404, "properties": { "Company": "Reed Elsevier plc", "Ticker": "RUK", "Market_Cap": "Large-Cap ($10B+)", "Street_One":"1 3 Strand", "Street_Two":"", "City":"London", "State":"", "Region":"", "Country":"GB", "Zip_Code":"WC2N 5EH", "Metro": "Albuquerque, NM",  "url_id": "12a84f8b1b04719ea90fec42c08e4b3bf173dcac"}, "geometry": {"type":"Point","coordinates":[-0.1264761000,51.5079211000]}},
{"type":"Feature", "id": 4403, "properties": { "Company": "Pearson plc", "Ticker": "PSO", "Market_Cap": "Large-Cap ($10B+)", "Street_One":"80 Strand", "Street_Two":"", "City":"London", "State":"", "Region":"", "Country":"GB", "Zip_Code":"WC2R 0RL", "Metro": "London, UK",  "url_id": "0bc6e9fd8ae77dd625a4c4baab01a72ea47195bb"}, "geometry": {"type":"Point","coordinates":[-0.1219929000,51.5101299000]}},
{"type":"Feature", "id": 4406, "properties": { "Company": "Omnicom Group Inc.", "Ticker": "OMC", "Market_Cap": "Large-Cap ($10B+)", "Street_One":"437 Madison Avenue", "Street_Two":"", "City":"New York", "State":"NY", "Region":"", "Country":"US", "Zip_Code":"10022", "Metro": "New York, NY",  "url_id": "e3ff4a75f87c4821a087067f04a172d50fc3471e"}, "geometry": {"type":"Point","coordinates":[-73.9753930000,40.7573650000]}},
{"type":"Feature", "id": 4407, "properties": { "Company": "WPP plc", "Ticker": "WPPGY", "Market_Cap": "Large-Cap ($10B+)", "Street_One":"27 Farm Street", "Street_Two":"", "City":"London", "State":"", "Region":"", "Country":"GB", "Zip_Code":"W1J 5RJ", "Metro": "Albuquerque, NM",  "url_id": "ac64f6b3907c87529d50c228a8cf42c8d4cb2f94"}, "geometry": {"type":"Point","coordinates":[-0.1485155000,51.5094875000]}},
{"type":"Feature", "id": 4394, "properties": { "Company": "Hertz Global Holdings, Inc.", "Ticker": "HTZ", "Market_Cap": "Mid-Cap ($2B - $10B)", "Street_One":"225 Brae Boulevard", "Street_Two":"", "City":"Park Ridge", "State":"NJ", "Region":"", "Country":"US", "Zip_Code":"07656", "Metro": "New York, NY",  "url_id": "e197d1afb95c1a7b168df7fa25b8e64cb39ac30e"}, "geometry": {"type":"Point","coordinates":[-74.0613049999,41.0393820000]}},
{"type":"Feature", "id": 4396, "properties": { "Company": "Pembina Pipeline Corporation", "Ticker": "PBA", "Market_Cap": "Mid-Cap ($2B - $10B)", "Street_One":"", "Street_Two":"", "City":"", "State":"", "Region":"", "Country":"", "Zip_Code":"", "Metro": "Calgary, AB",  "url_id": "2cf5243ce6fb882594a882b9906769f5f83dc62b"}, "geometry": {"type":"Point","coordinates":[0.0000000000,0.0000000000]}},
{"type":"Feature", "id": 4395, "properties": { "Company": "The ADT Corporation", "Ticker": "ADT", "Market_Cap": "Mid-Cap ($2B - $10B)", "Street_One":"1501 Yamato Road", "Street_Two":"", "City":"Boca Raton", "State":"FL", "Region":"", "Country":"US", "Zip_Code":"33431", "Metro": "Miami, FL",  "url_id": "8fad228600bbc396d63a3bd2c4ddd70cf49269ba"}, "geometry": {"type":"Point","coordinates":[-80.1168876000,26.3941148000]}},
{"type":"Feature", "id": 4393, "properties": { "Company": "Alliance Data Systems Corporation", "Ticker": "ADS", "Market_Cap": "Mid-Cap ($2B - $10B)", "Street_One":"7500 Dallas Parkway", "Street_Two":"", "City":"Plano", "State":"TX", "Region":"", "Country":"US", "Zip_Code":"75024", "Metro": "Dallas, TX",  "url_id": "e02cf25fda95271fec68679ebe427efd689ed06f"}, "geometry": {"type":"Point","coordinates":[-96.8235930000,33.0809310000]}},
{"type":"Feature", "id": 4392, "properties": { "Company": "The Western Union Company", "Ticker": "WU", "Market_Cap": "Mid-Cap ($2B - $10B)", "Street_One":"12500 East Belford Avenue", "Street_Two":"", "City":"Englewood", "State":"CO", "Region":"", "Country":"US", "Zip_Code":"80112", "Metro": "Denver, CO",  "url_id": "45972fe294b1d13508d93daaea98fce59b71bd0e"}, "geometry": {"type":"Point","coordinates":[-104.8449174000,39.5479714000]}},
{"type":"Feature", "id": 4391, "properties": { "Company": "Cameco Corp.", "Ticker": "CCJ", "Market_Cap": "Mid-Cap ($2B - $10B)", "Street_One":"2121 11th Street West", "Street_Two":"", "City":"Saskatoon", "State":"SK", "Region":"", "Country":"CA", "Zip_Code":"S7M 1J2", "Metro": "Saskatoon, SK",  "url_id": "e1ebcadb3cf557bae297b1744dc1f09e28dedc3f"}, "geometry": {"type":"Point","coordinates":[-106.7022183000,52.1144469000]}},
{"type":"Feature", "id": 4390, "properties": { "Company": "CONSOL Energy Inc.", "Ticker": "CNX", "Market_Cap": "Mid-Cap ($2B - $10B)", "Street_One":"", "Street_Two":"", "City":"", "State":"", "Region":"", "Country":"", "Zip_Code":"", "Metro": "Pittsburgh, PA",  "url_id": "d4fb1fdbc43ce323bdf10d9c7fb12db28bd9923c"}, "geometry": {"type":"Point","coordinates":[0.0000000000,0.0000000000]}},
{"type":"Feature", "id": 4389, "properties": { "Company": "Iron Mountain Inc.", "Ticker": "IRM", "Market_Cap": "Mid-Cap ($2B - $10B)", "Street_One":"745 Atlantic Avenue", "Street_Two":"", "City":"Boston", "State":"MA", "Region":"", "Country":"US", "Zip_Code":"02205", "Metro": "Boston, MA",  "url_id": "965f5a9c98fa1671e30dcd76075d417f853bb9ff"}, "geometry": {"type":"Point","coordinates":[-71.0568001000,42.3503881000]}},
{"type":"Feature", "id": 4388, "properties": { "Company": "FleetCor Technologies, Inc.", "Ticker": "FLT", "Market_Cap": "Mid-Cap ($2B - $10B)", "Street_One":"5445 Triangle Parkway Northwest", "Street_Two":"", "City":"Norcross", "State":"GA", "Region":"", "Country":"US", "Zip_Code":"30092", "Metro": "Atlanta, GA",  "url_id": "f2aac38bb143a6d7e89b3f8e8caba8dd79b0e18b"}, "geometry": {"type":"Point","coordinates":[-84.2240947000,33.9733394000]}},
{"type":"Feature", "id": 4387, "properties": { "Company": "Towers Watson & Co.", "Ticker": "TW", "Market_Cap": "Mid-Cap ($2B - $10B)", "Street_One":"875 3rd Avenue", "Street_Two":"", "City":"New York", "State":"NY", "Region":"", "Country":"US", "Zip_Code":"10022", "Metro": "New York, NY",  "url_id": "690d4fd5247c27fa1f09e7ec247422bba78428f0"}, "geometry": {"type":"Point","coordinates":[-73.9691649999,40.7572029000]}},
{"type":"Feature", "id": 4386, "properties": { "Company": "China Southern Airlines Co. Ltd.", "Ticker": "ZNH", "Market_Cap": "Mid-Cap ($2B - $10B)", "Street_One":"Airport Motorway Interchange", "Street_Two":"", "City":"Guangzhou", "State":"", "Region":"", "Country":"CN", "Zip_Code":"510400", "Metro": "Guangzhou, CN",  "url_id": "4fe255ee75e542d54c1b3e25c08e495e1ce7a98c"}, "geometry": {"type":"Point","coordinates":[113.2638932000,23.1597125000]}},
{"type":"Feature", "id": 4385, "properties": { "Company": "Yanzhou Coal Mining Co. Ltd.", "Ticker": "YZC", "Market_Cap": "Mid-Cap ($2B - $10B)", "Street_One":"298号 Fushan South Road", "Street_Two":"", "City":"Jining", "State":"SHANDONG", "Region":"", "Country":"CN", "Zip_Code":"273500", "Metro": "Shanghai, CN",  "url_id": "088e80bc1b46685def8c2ea85efbd6b63d5b4cea"}, "geometry": {"type":"Point","coordinates":[116.9507742000,35.3983062000]}},
{"type":"Feature", "id": 4372, "properties": { "Company": "Rollins Inc.", "Ticker": "ROL", "Market_Cap": "Mid-Cap ($2B - $10B)", "Street_One":"2170 Piedmont Road Northeast", "Street_Two":"", "City":"Atlanta", "State":"GA", "Region":"", "Country":"US", "Zip_Code":"30324", "Metro": "Atlanta, GA",  "url_id": "87cc743e5b500febc6386b0e94d7b1219cf262b4"}, "geometry": {"type":"Point","coordinates":[-84.3666444000,33.8152729000]}},
{"type":"Feature", "id": 4370, "properties": { "Company": "Vantiv, Inc.", "Ticker": "VNTV", "Market_Cap": "Mid-Cap ($2B - $10B)", "Street_One":"8500 Governors Hill Drive", "Street_Two":"", "City":"Cincinnati", "State":"OH", "Region":"", "Country":"US", "Zip_Code":"45249", "Metro": "Cincinnati, OH",  "url_id": "2f684202194da0e21d279b4bea9abeee4755b75f"}, "geometry": {"type":"Point","coordinates":[-84.3209883999,39.2863062000]}},
{"type":"Feature", "id": 4371, "properties": { "Company": "Grupo Aeroportuario del Pacifico S.A.B. de CV", "Ticker": "PAC", "Market_Cap": "Mid-Cap ($2B - $10B)", "Street_One":"", "Street_Two":"", "City":"", "State":"", "Region":"", "Country":"", "Zip_Code":"", "Metro": "Mexico City, MX",  "url_id": "fdd0ef22fa4768d89b8d3b8871fe7c63bf13dbb9"}, "geometry": {"type":"Point","coordinates":[0.0000000000,0.0000000000]}},
{"type":"Feature", "id": 4384, "properties": { "Company": "Gannett Co.", "Ticker": "GCI", "Market_Cap": "Mid-Cap ($2B - $10B)", "Street_One":"7950 Jones Branch Drive", "Street_Two":"", "City":"Mc Lean", "State":"VA", "Region":"", "Country":"US", "Zip_Code":"22102", "Metro": "Washington, DC",  "url_id": "d2d679625122bb6664b9078306c0c56f1d116a13"}, "geometry": {"type":"Point","coordinates":[-77.2184839999,38.9322779000]}},
{"type":"Feature", "id": 4383, "properties": { "Company": "Robert Half International Inc.", "Ticker": "RHI", "Market_Cap": "Mid-Cap ($2B - $10B)", "Street_One":"2884 Sand Hill Road", "Street_Two":"", "City":"Menlo Park", "State":"CA", "Region":"", "Country":"US", "Zip_Code":"94025", "Metro": "San Francisco, CA",  "url_id": "9776c9d643671b53cda2a31f7cb2dbfe245d26b2"}, "geometry": {"type":"Point","coordinates":[-122.2149400000,37.4217760000]}},
{"type":"Feature", "id": 4382, "properties": { "Company": "Total System Services, Inc.", "Ticker": "TSS", "Market_Cap": "Mid-Cap ($2B - $10B)", "Street_One":"1 Tsys Way", "Street_Two":"", "City":"Columbus", "State":"GA", "Region":"", "Country":"US", "Zip_Code":"31901", "Metro": "Atlanta, GA",  "url_id": "77e3ea5f4ca70676e922b64430179d61eebbd8c0"}, "geometry": {"type":"Point","coordinates":[-84.9924032000,32.4749904000]}},
{"type":"Feature", "id": 4381, "properties": { "Company": "Central Fund of Canada Limited", "Ticker": "CEF", "Market_Cap": "Mid-Cap ($2B - $10B)", "Street_One":"", "Street_Two":"", "City":"", "State":"", "Region":"", "Country":"", "Zip_Code":"", "Metro": "Calgary, AB",  "url_id": "6e33b50c5bdea39c18a3b5e2f9c29a876aa08743"}, "geometry": {"type":"Point","coordinates":[0.0000000000,0.0000000000]}},
{"type":"Feature", "id": 4380, "properties": { "Company": "Genpact Ltd.", "Ticker": "G", "Market_Cap": "Mid-Cap ($2B - $10B)", "Street_One":"", "Street_Two":"", "City":"", "State":"", "Region":"", "Country":"", "Zip_Code":"", "Metro": "Hamilton, BM",  "url_id": "00ab7fab41607cdfd48be566dc7817651d09caa9"}, "geometry": {"type":"Point","coordinates":[0.0000000000,0.0000000000]}},
{"type":"Feature", "id": 4379, "properties": { "Company": "Carlisle Companies Incorporated", "Ticker": "CSL", "Market_Cap": "Mid-Cap ($2B - $10B)", "Street_One":"11605 North Community House Road", "Street_Two":"", "City":"Charlotte", "State":"NC", "Region":"", "Country":"US", "Zip_Code":"28277", "Metro": "Charlotte, NC",  "url_id": "60e749807cdd6ac7d56d3ab9755b37de34597874"}, "geometry": {"type":"Point","coordinates":[-80.8392970000,35.0595220000]}},
{"type":"Feature", "id": 4378, "properties": { "Company": "MSCI Inc.", "Ticker": "MSCI", "Market_Cap": "Mid-Cap ($2B - $10B)", "Street_One":"250 Greenwich Street", "Street_Two":"", "City":"New York", "State":"NY", "Region":"", "Country":"US", "Zip_Code":"10007", "Metro": "New York, NY",  "url_id": "c3a7b184aa8cedf6c6b25c916bb601883b501e41"}, "geometry": {"type":"Point","coordinates":[-74.0119390999,40.7131459999]}},
{"type":"Feature", "id": 4377, "properties": { "Company": "ManpowerGroup Inc.", "Ticker": "MAN", "Market_Cap": "Mid-Cap ($2B - $10B)", "Street_One":"100 Manpower Place", "Street_Two":"", "City":"Milwaukee", "State":"WI", "Region":"", "Country":"US", "Zip_Code":"53212", "Metro": "Milwaukee, WI",  "url_id": "2aee9794d97aa918a19c1859e886dc33c7cca78d"}, "geometry": {"type":"Point","coordinates":[-87.9131512000,43.0490576000]}},
{"type":"Feature", "id": 4376, "properties": { "Company": "Axiall Corporation", "Ticker": "AXLL", "Market_Cap": "Mid-Cap ($2B - $10B)", "Street_One":"115 Perimeter Center Place", "Street_Two":"", "City":"Atlanta", "State":"GA", "Region":"", "Country":"US", "Zip_Code":"30346", "Metro": "Atlanta, GA",  "url_id": "5f30ce46f9fd60ed3a107cf12c9ddad490a2626b"}, "geometry": {"type":"Point","coordinates":[-84.3413834999,33.9276871000]}},
{"type":"Feature", "id": 4375, "properties": { "Company": "Compagnie Generale de Geophysique", "Ticker": "CGG", "Market_Cap": "Mid-Cap ($2B - $10B)", "Street_One":"", "Street_Two":"", "City":"", "State":"", "Region":"", "Country":"", "Zip_Code":"", "Metro": "Paris, FR",  "url_id": "c63253c06f2f6300765db1367bdccc63dc418f7d"}, "geometry": {"type":"Point","coordinates":[0.0000000000,0.0000000000]}},
{"type":"Feature", "id": 4374, "properties": { "Company": "Corrections Corporation of America", "Ticker": "CXW", "Market_Cap": "Mid-Cap ($2B - $10B)", "Street_One":"10 Burton Hills Boulevard", "Street_Two":"", "City":"Nashville", "State":"TN", "Region":"", "Country":"US", "Zip_Code":"37215", "Metro": "Nashville, TN",  "url_id": "917a8c71b180c6e31e4cbc862df719025a7583ca"}, "geometry": {"type":"Point","coordinates":[-86.8217380000,36.0939620000]}},
{"type":"Feature", "id": 4373, "properties": { "Company": "Global Payments Inc.", "Ticker": "GPN", "Market_Cap": "Mid-Cap ($2B - $10B)", "Street_One":"", "Street_Two":"", "City":"", "State":"", "Region":"", "Country":"", "Zip_Code":"", "Metro": "Atlanta, GA",  "url_id": "093b901d879055bb3b2494f1ba96b282b04f932a"}, "geometry": {"type":"Point","coordinates":[0.0000000000,0.0000000000]}},
{"type":"Feature", "id": 4361, "properties": { "Company": "WEX Inc.", "Ticker": "WEX", "Market_Cap": "Mid-Cap ($2B - $10B)", "Street_One":"97 Darling Avenue", "Street_Two":"", "City":"South Portland", "State":"ME", "Region":"", "Country":"US", "Zip_Code":"04106", "Metro": "Portland-ME, ME",  "url_id": "8e09a6dee1c33da3ca0bd597a66e2d727c6294e2"}, "geometry": {"type":"Point","coordinates":[-70.3247758999,43.6354445000]}},
{"type":"Feature", "id": 4369, "properties": { "Company": "Armstrong World Industries, Inc.", "Ticker": "AWI", "Market_Cap": "Mid-Cap ($2B - $10B)", "Street_One":"2500 Columbia Avenue", "Street_Two":"", "City":"Lancaster", "State":"PA", "Region":"", "Country":"US", "Zip_Code":"17603", "Metro": "Philadelphia, PA",  "url_id": "da34357d0ac30f42a5c90cd8eade29cec2286175"}, "geometry": {"type":"Point","coordinates":[-76.3724469000,40.0398119000]}},
{"type":"Feature", "id": 4368, "properties": { "Company": "AMERCO", "Ticker": "UHAL", "Market_Cap": "Mid-Cap ($2B - $10B)", "Street_One":"1325 Airmotive Way", "Street_Two":"", "City":"Reno", "State":"NV", "Region":"", "Country":"US", "Zip_Code":"89502", "Metro": "Reno, NV",  "url_id": "4500766126c9d4491eac65f62add34a462a315ce"}, "geometry": {"type":"Point","coordinates":[-119.7793270000,39.5115220000]}},
{"type":"Feature", "id": 4367, "properties": { "Company": "Ryder System, Inc.", "Ticker": "R", "Market_Cap": "Mid-Cap ($2B - $10B)", "Street_One":"11690 Northwest 105th Street", "Street_Two":"", "City":"Miami", "State":"FL", "Region":"", "Country":"US", "Zip_Code":"33178", "Metro": "Miami, FL",  "url_id": "4da53a6f2077413958fba73b5fe9a7a8cff690e0"}, "geometry": {"type":"Point","coordinates":[-80.3853319999,25.8695257000]}},
{"type":"Feature", "id": 4366, "properties": { "Company": "USG Corporation", "Ticker": "USG", "Market_Cap": "Mid-Cap ($2B - $10B)", "Street_One":"550 West Adams Street", "Street_Two":"", "City":"Chicago", "State":"IL", "Region":"", "Country":"US", "Zip_Code":"60661", "Metro": "Chicago, IL",  "url_id": "428b59ce60524ab4c06b6f5c2dda90252832a15a"}, "geometry": {"type":"Point","coordinates":[-87.6415224000,41.8795749000]}},
{"type":"Feature", "id": 4365, "properties": { "Company": "Equity One Inc.", "Ticker": "EQY", "Market_Cap": "Mid-Cap ($2B - $10B)", "Street_One":"1600 Northeast Miami Gardens Drive", "Street_Two":"", "City":"Miami", "State":"FL", "Region":"", "Country":"US", "Zip_Code":"33179", "Metro": "Miami, FL",  "url_id": "1f094c5bb1235b0ade41b2303281f2fd1e8662d4"}, "geometry": {"type":"Point","coordinates":[-80.1700013999,25.9446920000]}},
{"type":"Feature", "id": 4364, "properties": { "Company": "World Fuel Services Corp.", "Ticker": "INT", "Market_Cap": "Mid-Cap ($2B - $10B)", "Street_One":"9800 Northwest 41st Street", "Street_Two":"", "City":"Miami", "State":"FL", "Region":"", "Country":"US", "Zip_Code":"33178", "Metro": "Miami, FL",  "url_id": "f11cfdda4125b6929a7eefe9aba51857c92ba3cf"}, "geometry": {"type":"Point","coordinates":[-80.3555229999,25.8105331000]}},
{"type":"Feature", "id": 4363, "properties": { "Company": "Ctrip.com International Ltd.", "Ticker": "CTRP", "Market_Cap": "Mid-Cap ($2B - $10B)", "Street_One":"99号 Fuquan Road", "Street_Two":"", "City":"Shanghai", "State":"SHANGHAI", "Region":"", "Country":"CN", "Zip_Code":"200335", "Metro": "Shanghai, CN",  "url_id": "5616f6d12de057602080cd687ffd5801ee77ad49"}, "geometry": {"type":"Point","coordinates":[121.3584023000,31.2195056000]}},
{"type":"Feature", "id": 4362, "properties": { "Company": "HSN, Inc.", "Ticker": "HSNI", "Market_Cap": "Mid-Cap ($2B - $10B)", "Street_One":"", "Street_Two":"", "City":"", "State":"", "Region":"", "Country":"", "Zip_Code":"", "Metro": "Tampa, FL",  "url_id": "9328224b615f9d0a28bb34d3a63f494d367731f7"}, "geometry": {"type":"Point","coordinates":[0.0000000000,0.0000000000]}},
{"type":"Feature", "id": 4360, "properties": { "Company": "MPLX LP", "Ticker": "MPLX", "Market_Cap": "Mid-Cap ($2B - $10B)", "Street_One":"200 East Hardin Street", "Street_Two":"", "City":"Findlay", "State":"OH", "Region":"", "Country":"US", "Zip_Code":"45840", "Metro": "Columbus, OH",  "url_id": "4d680263d899ecff00f4f8c39651e4e847ac1a38"}, "geometry": {"type":"Point","coordinates":[-83.6485357000,41.0357020000]}},
{"type":"Feature", "id": 4359, "properties": { "Company": "Starz", "Ticker": "STRZA", "Market_Cap": "Mid-Cap ($2B - $10B)", "Street_One":"8900 Liberty Circle", "Street_Two":"", "City":"Englewood", "State":"CO", "Region":"", "Country":"US", "Zip_Code":"80112", "Metro": "Denver, CO",  "url_id": "1e544dbe8c3432c4cde29b3c707a00bf17467279"}, "geometry": {"type":"Point","coordinates":[-104.8410910000,39.5539800000]}},
{"type":"Feature", "id": 4358, "properties": { "Company": "MAXIMUS, Inc.", "Ticker": "MMS", "Market_Cap": "Mid-Cap ($2B - $10B)", "Street_One":"1891 Metro Center Drive", "Street_Two":"", "City":"Reston", "State":"VA", "Region":"", "Country":"US", "Zip_Code":"20190", "Metro": "Washington, DC",  "url_id": "85c20e77bd19da25310561e6b98accc2599e1e76"}, "geometry": {"type":"Point","coordinates":[-77.3411007000,38.9497835000]}},
{"type":"Feature", "id": 4357, "properties": { "Company": "The GEO Group, Inc.", "Ticker": "GEO", "Market_Cap": "Mid-Cap ($2B - $10B)", "Street_One":"621 Northwest 53rd Street", "Street_Two":"", "City":"Boca Raton", "State":"FL", "Region":"", "Country":"US", "Zip_Code":"33487", "Metro": "Miami, FL",  "url_id": "f75e41ae4e6127ac4e7d56a9b5f65a6a7f1b229c"}, "geometry": {"type":"Point","coordinates":[-80.0960853000,26.3963222000]}},
{"type":"Feature", "id": 4355, "properties": { "Company": "Clear Channel Outdoor Holdings Inc.", "Ticker": "CCO", "Market_Cap": "Mid-Cap ($2B - $10B)", "Street_One":"200 East Basse Road", "Street_Two":"", "City":"San Antonio", "State":"TX", "Region":"", "Country":"US", "Zip_Code":"78209", "Metro": "San Antonio, TX",  "url_id": "3345b35f1b7f6d1348cf7285ad2b5eab1767f898"}, "geometry": {"type":"Point","coordinates":[-98.4793930000,29.4924400000]}},
{"type":"Feature", "id": 4349, "properties": { "Company": "Booz Allen Hamilton Holding Corporation", "Ticker": "BAH", "Market_Cap": "Small-Cap ($200M - $2B)", "Street_One":"8283 Greensboro Drive", "Street_Two":"", "City":"Mc Lean", "State":"VA", "Region":"", "Country":"US", "Zip_Code":"22102", "Metro": "Washington, DC",  "url_id": "be98cf8586167446250e124492c1ffa82ae17380"}, "geometry": {"type":"Point","coordinates":[-77.2312810999,38.9224556000]}},
{"type":"Feature", "id": 4348, "properties": { "Company": "Deluxe Corp.", "Ticker": "DLX", "Market_Cap": "Small-Cap ($200M - $2B)", "Street_One":"3680 Victoria Street North", "Street_Two":"", "City":"Shoreview", "State":"MN", "Region":"", "Country":"US", "Zip_Code":"55126", "Metro": "Minneapolis, MN",  "url_id": "4abf0b2d83115cdfb148e2a7a9510f66a98e3bf8"}, "geometry": {"type":"Point","coordinates":[-93.1298219000,45.0528911000]}},
{"type":"Feature", "id": 4350, "properties": { "Company": "Portfolio Recovery Associates Inc.", "Ticker": "PRAA", "Market_Cap": "Mid-Cap ($2B - $10B)", "Street_One":"120 Corporate Boulevard", "Street_Two":"", "City":"Norfolk", "State":"VA", "Region":"", "Country":"US", "Zip_Code":"23502", "Metro": "Norfolk, VA",  "url_id": "4da004f397c75d4592bfd26f5438893915c1bbcd"}, "geometry": {"type":"Point","coordinates":[-76.2131380000,36.8408480000]}},
{"type":"Feature", "id": 4342, "properties": { "Company": "Giant Interactive Group, Inc.", "Ticker": "GA", "Market_Cap": "Small-Cap ($200M - $2B)", "Street_One":"", "Street_Two":"", "City":"", "State":"", "Region":"", "Country":"", "Zip_Code":"", "Metro": "Shanghai, CN",  "url_id": "f4db099f848cf80b1e6909d46a15393e8bcecc23"}, "geometry": {"type":"Point","coordinates":[0.0000000000,0.0000000000]}},
{"type":"Feature", "id": 4346, "properties": { "Company": "Stantec Inc.", "Ticker": "STN", "Market_Cap": "Small-Cap ($200M - $2B)", "Street_One":"10160 112 Street Northwest", "Street_Two":"", "City":"Edmonton", "State":"AB", "Region":"", "Country":"CA", "Zip_Code":"T5K 2V2", "Metro": "Edmonton, AB",  "url_id": "ee0d506e73046ab037fbb6d0d64e08cb96e183ed"}, "geometry": {"type":"Point","coordinates":[-113.5143875000,53.5420777999]}},
{"type":"Feature", "id": 4354, "properties": { "Company": "John Wiley & Sons Inc.", "Ticker": "JW-A", "Market_Cap": "Mid-Cap ($2B - $10B)", "Street_One":"111 River Street", "Street_Two":"", "City":"Hoboken", "State":"NJ", "Region":"", "Country":"US", "Zip_Code":"07030", "Metro": "New York, NY",  "url_id": "d9ec0e9d0e81a60fe301e800feb57b1b0db4231d"}, "geometry": {"type":"Point","coordinates":[-74.0286084999,40.7374641000]}},
{"type":"Feature", "id": 4343, "properties": { "Company": "Corporate Executive Board Co.", "Ticker": "CEB", "Market_Cap": "Small-Cap ($200M - $2B)", "Street_One":"1919 North Lynn Street", "Street_Two":"", "City":"Arlington", "State":"VA", "Region":"", "Country":"US", "Zip_Code":"22209", "Metro": "Washington, DC",  "url_id": "c3c7a2c8bf01af523c7f2f4446f813565d76b2c5"}, "geometry": {"type":"Point","coordinates":[-77.0706850000,38.8975290000]}},
{"type":"Feature", "id": 4344, "properties": { "Company": "Diebold, Incorporated", "Ticker": "DBD", "Market_Cap": "Small-Cap ($200M - $2B)", "Street_One":"5995 Mayfair Road", "Street_Two":"", "City":"North Canton", "State":"OH", "Region":"", "Country":"US", "Zip_Code":"44720", "Metro": "Cleveland, OH",  "url_id": "afe2fa2486b73c4eac9473587ab3e3b407bd69d2"}, "geometry": {"type":"Point","coordinates":[-81.4230658000,40.9073690000]}},
{"type":"Feature", "id": 4345, "properties": { "Company": "KKR Financial Holdings LLC", "Ticker": "KFN", "Market_Cap": "Small-Cap ($200M - $2B)", "Street_One":"555 California Street", "Street_Two":"", "City":"San Francisco", "State":"CA", "Region":"", "Country":"US", "Zip_Code":"94104", "Metro": "San Francisco, CA",  "url_id": "f20cce6fa5a18eb18a657afc82fa196be3709d8b"}, "geometry": {"type":"Point","coordinates":[-122.4043821000,37.7927271000]}},
{"type":"Feature", "id": 4353, "properties": { "Company": "Ritchie Bros. Auctioneers Incorporated", "Ticker": "RBA", "Market_Cap": "Mid-Cap ($2B - $10B)", "Street_One":"9500 Glenlyon Parkway", "Street_Two":"", "City":"Burnaby", "State":"BC", "Region":"", "Country":"CA", "Zip_Code":"V5J 0B3", "Metro": "Vancouver, BC",  "url_id": "670e53bea4f18da9fa0f3ff21a0e5525af6da1cf"}, "geometry": {"type":"Point","coordinates":[-123.0034890000,49.1959282000]}},
{"type":"Feature", "id": 4347, "properties": { "Company": "Rent-A-Center, Inc.", "Ticker": "RCII", "Market_Cap": "Small-Cap ($200M - $2B)", "Street_One":"5501 Headquarters Drive", "Street_Two":"", "City":"Plano", "State":"TX", "Region":"", "Country":"US", "Zip_Code":"75024", "Metro": "Dallas, TX",  "url_id": "b44f7f217398911a022303e59a6f0bbd9e35e25b"}, "geometry": {"type":"Point","coordinates":[-96.8140020000,33.0854950000]}},
{"type":"Feature", "id": 4352, "properties": { "Company": "Bright Horizons Family Solutions, Inc.", "Ticker": "BFAM", "Market_Cap": "Mid-Cap ($2B - $10B)", "Street_One":"200 Talcott Avenue", "Street_Two":"", "City":"Watertown", "State":"MA", "Region":"", "Country":"US", "Zip_Code":"02472", "Metro": "Boston, MA",  "url_id": "3205d7913bfd627dd89a1fc95f693cdb7e047589"}, "geometry": {"type":"Point","coordinates":[-71.1642538000,42.3624372000]}},
{"type":"Feature", "id": 4351, "properties": { "Company": "UNS Energy Corporation", "Ticker": "UNS", "Market_Cap": "Mid-Cap ($2B - $10B)", "Street_One":"", "Street_Two":"", "City":"", "State":"", "Region":"", "Country":"", "Zip_Code":"", "Metro": "Phoenix, AZ",  "url_id": "40692f0fbc03d16dec21951c0c85da5126c7ac01"}, "geometry": {"type":"Point","coordinates":[0.0000000000,0.0000000000]}},
{"type":"Feature", "id": 4339, "properties": { "Company": "51job Inc.", "Ticker": "JOBS", "Market_Cap": "Small-Cap ($200M - $2B)", "Street_One":"Shanghai East Road", "Street_Two":"", "City":"Nantong", "State":"JIANGSU", "Region":"", "Country":"CN", "Zip_Code":"226010", "Metro": "Shanghai, CN",  "url_id": "12ce0936ae03aea72f21fe79a4591998c732a5da"}, "geometry": {"type":"Point","coordinates":[120.9490579000,31.9173104000]}},
{"type":"Feature", "id": 4341, "properties": { "Company": "Meredith Corporation", "Ticker": "MDP", "Market_Cap": "Small-Cap ($200M - $2B)", "Street_One":"1716 Locust Street", "Street_Two":"", "City":"Des Moines", "State":"IA", "Region":"", "Country":"US", "Zip_Code":"50309", "Metro": "Des Moines, IA",  "url_id": "cd3658842a3d002bcab7dd39eca0e3c0f2e02b7d"}, "geometry": {"type":"Point","coordinates":[-93.6396187000,41.5836298000]}},
{"type":"Feature", "id": 4340, "properties": { "Company": "The Advisory Board Company", "Ticker": "ABCO", "Market_Cap": "Small-Cap ($200M - $2B)", "Street_One":"2141 K Street Northwest", "Street_Two":"", "City":"Washington", "State":"DC", "Region":"", "Country":"US", "Zip_Code":"20037", "Metro": "Washington, DC",  "url_id": "88327fde9025c96ff13c34a896c5a3e9c315c600"}, "geometry": {"type":"Point","coordinates":[-77.0480585999,38.9026883000]}},
{"type":"Feature", "id": 4338, "properties": { "Company": "Atlantic Power Corporation", "Ticker": "AT", "Market_Cap": "Small-Cap ($200M - $2B)", "Street_One":"1 Federal Street", "Street_Two":"", "City":"Boston", "State":"MA", "Region":"", "Country":"US", "Zip_Code":"02110", "Metro": "Boston, MA",  "url_id": "0d6c45224dad4750584272c0625f750f88e9b99b"}, "geometry": {"type":"Point","coordinates":[-71.0567160000,42.3556260000]}},
{"type":"Feature", "id": 4337, "properties": { "Company": "Alpha Natural Resources, Inc.", "Ticker": "ANR", "Market_Cap": "Small-Cap ($200M - $2B)", "Street_One":"", "Street_Two":"", "City":"", "State":"", "Region":"", "Country":"", "Zip_Code":"", "Metro": "Charlotte, NC",  "url_id": "cff65401bd2438eb1053d095949606c9f3bafd4a"}, "geometry": {"type":"Point","coordinates":[0.0000000000,0.0000000000]}},
{"type":"Feature", "id": 4336, "properties": { "Company": "Healthcare Services Group Inc.", "Ticker": "HCSG", "Market_Cap": "Small-Cap ($200M - $2B)", "Street_One":"3220 Tillman Drive", "Street_Two":"", "City":"Bensalem", "State":"PA", "Region":"", "Country":"US", "Zip_Code":"19020", "Metro": "Philadelphia, PA",  "url_id": "59734a33b045e3697616dca57bcecfbb54beffed"}, "geometry": {"type":"Point","coordinates":[-74.9618203000,40.1148600000]}},
{"type":"Feature", "id": 4335, "properties": { "Company": "Steelcase Inc.", "Ticker": "SCS", "Market_Cap": "Small-Cap ($200M - $2B)", "Street_One":"901 44th Street Southeast", "Street_Two":"", "City":"Grand Rapids", "State":"MI", "Region":"", "Country":"US", "Zip_Code":"49508", "Metro": "Grand Rapids, MI",  "url_id": "4a9a8e703170dd02f80ac98d9413b417564f85f0"}, "geometry": {"type":"Point","coordinates":[-85.6417429999,42.8853620000]}},
{"type":"Feature", "id": 4334, "properties": { "Company": "Shutterstock, Inc.", "Ticker": "SSTK", "Market_Cap": "Small-Cap ($200M - $2B)", "Street_One":"60 Broad Street", "Street_Two":"", "City":"New York", "State":"NY", "Region":"", "Country":"US", "Zip_Code":"10004", "Metro": "New York, NY",  "url_id": "fc9d1cd3513f0e9b1931a8c0d144c9ae113e0b6e"}, "geometry": {"type":"Point","coordinates":[-74.0120760000,40.7052900000]}},
{"type":"Feature", "id": 4333, "properties": { "Company": "HNI Corp.", "Ticker": "HNI", "Market_Cap": "Small-Cap ($200M - $2B)", "Street_One":"408 East 2nd Street", "Street_Two":"", "City":"Muscatine", "State":"IA", "Region":"", "Country":"US", "Zip_Code":"52761", "Metro": "Des Moines, IA",  "url_id": "b09821c052f966b9afb2634a1da69ce7f3408400"}, "geometry": {"type":"Point","coordinates":[-91.0417389999,41.4231500000]}},
{"type":"Feature", "id": 4332, "properties": { "Company": "Euronet Worldwide Inc.", "Ticker": "EEFT", "Market_Cap": "Small-Cap ($200M - $2B)", "Street_One":"3500 College Boulevard", "Street_Two":"", "City":"Leawood", "State":"KS", "Region":"", "Country":"US", "Zip_Code":"66211", "Metro": "Kansas City, MO",  "url_id": "71d6329b8cbd2573f69f039a11b4210c9dda01ff"}, "geometry": {"type":"Point","coordinates":[-94.6274370000,38.9283740000]}},
{"type":"Feature", "id": 4331, "properties": { "Company": "SunPower Corporation", "Ticker": "SPWR", "Market_Cap": "Small-Cap ($200M - $2B)", "Street_One":"77 Rio Robles", "Street_Two":"", "City":"San Jose", "State":"CA", "Region":"", "Country":"US", "Zip_Code":"95134", "Metro": "San Francisco, CA",  "url_id": "3dd1d75403362bc12ac257b783ef02e273855864"}, "geometry": {"type":"Point","coordinates":[-121.9465440000,37.4050200000]}},
{"type":"Feature", "id": 4330, "properties": { "Company": "Herman Miller Inc.", "Ticker": "MLHR", "Market_Cap": "Small-Cap ($200M - $2B)", "Street_One":"855 East Main Avenue", "Street_Two":"", "City":"Zeeland", "State":"MI", "Region":"", "Country":"US", "Zip_Code":"49464", "Metro": "Grand Rapids, MI",  "url_id": "47968460746bacc0826b1bd0aaa167f449d57328"}, "geometry": {"type":"Point","coordinates":[-85.9961575000,42.8124433000]}},
{"type":"Feature", "id": 4329, "properties": { "Company": "United Stationers Inc.", "Ticker": "USTR", "Market_Cap": "Small-Cap ($200M - $2B)", "Street_One":"1 Parkway North", "Street_Two":"", "City":"Deerfield", "State":"IL", "Region":"", "Country":"US", "Zip_Code":"60015", "Metro": "Chicago, IL",  "url_id": "b8ccf071aae2ea1bc95ca99bbbc2a884e1d5fd2f"}, "geometry": {"type":"Point","coordinates":[-87.8766650000,42.1641830000]}},
{"type":"Feature", "id": 4328, "properties": { "Company": "The New York Times Company", "Ticker": "NYT", "Market_Cap": "Small-Cap ($200M - $2B)", "Street_One":"620 8th Avenue", "Street_Two":"", "City":"New York", "State":"NY", "Region":"", "Country":"US", "Zip_Code":"10018", "Metro": "New York, NY",  "url_id": "a0599f22baf521c6f3ae258e442bbdf408853852"}, "geometry": {"type":"Point","coordinates":[-73.9903959999,40.7559780000]}},
{"type":"Feature", "id": 4327, "properties": { "Company": "CACI International Inc.", "Ticker": "CACI", "Market_Cap": "Small-Cap ($200M - $2B)", "Street_One":"1100 North Glebe Road", "Street_Two":"", "City":"Arlington", "State":"VA", "Region":"", "Country":"US", "Zip_Code":"22201", "Metro": "Washington, DC",  "url_id": "a6e13b370012a14ef43b54a3a41fd5affbf32005"}, "geometry": {"type":"Point","coordinates":[-77.1181589999,38.8834919000]}},
{"type":"Feature", "id": 4326, "properties": { "Company": "Grupo Aeroportuario del Centro Norte, S.A.B. de C.V.", "Ticker": "OMAB", "Market_Cap": "Small-Cap ($200M - $2B)", "Street_One":"", "Street_Two":"", "City":"", "State":"", "Region":"", "Country":"", "Zip_Code":"", "Metro": "Monterrey, MX",  "url_id": "e0e6dd84708afb80ec28a3c99ea9f5c3ebcabfca"}, "geometry": {"type":"Point","coordinates":[0.0000000000,0.0000000000]}},
{"type":"Feature", "id": 4316, "properties": { "Company": "TeleTech Holdings Inc.", "Ticker": "TTEC", "Market_Cap": "Small-Cap ($200M - $2B)", "Street_One":"9197 South Peoria Street", "Street_Two":"", "City":"Englewood", "State":"CO", "Region":"", "Country":"US", "Zip_Code":"80112", "Metro": "Denver, CO",  "url_id": "2a02702237e91112c42e004ebcfd845354dd1453"}, "geometry": {"type":"Point","coordinates":[-104.8420206000,39.5488997000]}},
{"type":"Feature", "id": 4315, "properties": { "Company": "Exlservice Holdings, Inc.", "Ticker": "EXLS", "Market_Cap": "Small-Cap ($200M - $2B)", "Street_One":"280 Park Avenue", "Street_Two":"", "City":"New York", "State":"NY", "Region":"", "Country":"US", "Zip_Code":"10017", "Metro": "New York, NY",  "url_id": "0a35f21519597a318950e912653fba753c43abd5"}, "geometry": {"type":"Point","coordinates":[-73.9750760000,40.7564190000]}},
{"type":"Feature", "id": 4314, "properties": { "Company": "Arch Coal Inc.", "Ticker": "ACI", "Market_Cap": "Small-Cap ($200M - $2B)", "Street_One":"1 City Place Drive", "Street_Two":"", "City":"Creve Coeur", "State":"MO", "Region":"", "Country":"US", "Zip_Code":"63141", "Metro": "St. Louis, MO",  "url_id": "b37564345571a28043f16808dff17e3c0e37d4c1"}, "geometry": {"type":"Point","coordinates":[-90.4395823000,38.6727457000]}},
{"type":"Feature", "id": 4313, "properties": { "Company": "Quad/Graphics, Inc.", "Ticker": "QUAD", "Market_Cap": "Small-Cap ($200M - $2B)", "Street_One":"Harry'S Way", "Street_Two":"", "City":"Sussex", "State":"WI", "Region":"", "Country":"US", "Zip_Code":"53089", "Metro": "Milwaukee, WI",  "url_id": "56161eb67c091751c9f098f552ea85ea381485ae"}, "geometry": {"type":"Point","coordinates":[-88.2037996999,43.1297022000]}},
{"type":"Feature", "id": 4322, "properties": { "Company": "The Brink's Company", "Ticker": "BCO", "Market_Cap": "Small-Cap ($200M - $2B)", "Street_One":"1801 Bayberry Court", "Street_Two":"", "City":"Richmond", "State":"VA", "Region":"", "Country":"US", "Zip_Code":"23226", "Metro": "Washington, DC",  "url_id": "7f14060cc5e2f1c3e106cd6508c6e95da2f25235"}, "geometry": {"type":"Point","coordinates":[-77.5323621000,37.6078270000]}},
{"type":"Feature", "id": 4323, "properties": { "Company": "Cardtronics Inc.", "Ticker": "CATM", "Market_Cap": "Small-Cap ($200M - $2B)", "Street_One":"3250 Briarpark Drive", "Street_Two":"", "City":"Houston", "State":"TX", "Region":"", "Country":"US", "Zip_Code":"77042", "Metro": "Houston, TX",  "url_id": "f3132ad06cb279c6536e5f00cde06d8de7dd39bf"}, "geometry": {"type":"Point","coordinates":[-95.5503310000,29.7312910000]}},
{"type":"Feature", "id": 4324, "properties": { "Company": "FTI Consulting, Inc.", "Ticker": "FCN", "Market_Cap": "Small-Cap ($200M - $2B)", "Street_One":"777 South Flagler Drive", "Street_Two":"", "City":"West Palm Beach", "State":"FL", "Region":"", "Country":"US", "Zip_Code":"33401", "Metro": "Miami, FL",  "url_id": "f78ee8d5d4a4694f5a58818d8474458fdc439b9f"}, "geometry": {"type":"Point","coordinates":[-80.0493169000,26.7065896000]}},
{"type":"Feature", "id": 4325, "properties": { "Company": "Collective Brands, Inc.", "Ticker": "PSS", "Market_Cap": "Small-Cap ($200M - $2B)", "Street_One":"3231 Southeast 6th Avenue", "Street_Two":"", "City":"Topeka", "State":"KS", "Region":"", "Country":"US", "Zip_Code":"66607", "Metro": "Kansas City, MO",  "url_id": "79c18dd14588bbc2fd01f712a047e5eff980a623"}, "geometry": {"type":"Point","coordinates":[-95.6287919999,39.0433670000]}},
{"type":"Feature", "id": 4321, "properties": { "Company": "Acacia Research Corporation", "Ticker": "ACTG", "Market_Cap": "Small-Cap ($200M - $2B)", "Street_One":"500 Newport Center Drive", "Street_Two":"", "City":"Newport Beach", "State":"CA", "Region":"", "Country":"US", "Zip_Code":"92660", "Metro": "Los Angeles, CA",  "url_id": "e026a7a098aa5286c430a3b6d1761c4951feb01c"}, "geometry": {"type":"Point","coordinates":[-117.8719972000,33.6159856000]}},
{"type":"Feature", "id": 4312, "properties": { "Company": "Ascent Capital Group, Inc.", "Ticker": "ASCMA", "Market_Cap": "Small-Cap ($200M - $2B)", "Street_One":"5251 Dtc Parkway", "Street_Two":"", "City":"Greenwood Village", "State":"CO", "Region":"", "Country":"US", "Zip_Code":"80111", "Metro": "Denver, CO",  "url_id": "e65bfa5a2fc723679a12f01cebf00ac2dab2eaf6"}, "geometry": {"type":"Point","coordinates":[-104.8975834000,39.6203263000]}},
{"type":"Feature", "id": 4320, "properties": { "Company": "ABM Industries Incorporated", "Ticker": "ABM", "Market_Cap": "Small-Cap ($200M - $2B)", "Street_One":"551 5th Avenue", "Street_Two":"", "City":"New York", "State":"NY", "Region":"", "Country":"US", "Zip_Code":"10017", "Metro": "New York, NY",  "url_id": "70189487fb8ec1a82d328c0f2b4c95c5c1e188f6"}, "geometry": {"type":"Point","coordinates":[-73.9786783000,40.7552368000]}},
{"type":"Feature", "id": 4319, "properties": { "Company": "Heartland Payment Systems, Inc.", "Ticker": "HPY", "Market_Cap": "Small-Cap ($200M - $2B)", "Street_One":"90 Nassau Street", "Street_Two":"", "City":"Princeton", "State":"NJ", "Region":"", "Country":"US", "Zip_Code":"08542", "Metro": "New York, NY",  "url_id": "35ac3c94eeef582cea28b6fb1e75b41c721b9fc9"}, "geometry": {"type":"Point","coordinates":[-74.6600005000,40.3497407000]}},
{"type":"Feature", "id": 4318, "properties": { "Company": "Netspend Holdings, Inc.", "Ticker": "NTSP", "Market_Cap": "Small-Cap ($200M - $2B)", "Street_One":"701 Brazos Street", "Street_Two":"", "City":"Austin", "State":"TX", "Region":"", "Country":"US", "Zip_Code":"78701", "Metro": "Austin, TX",  "url_id": "001e20c56960d11d8e6224c24b5df9881b7a80de"}, "geometry": {"type":"Point","coordinates":[-97.7404871999,30.2686146999]}},
{"type":"Feature", "id": 4317, "properties": { "Company": "Interval Leisure Group, Inc.", "Ticker": "IILG", "Market_Cap": "Small-Cap ($200M - $2B)", "Street_One":"6262 Sunset Drive", "Street_Two":"", "City":"Miami", "State":"FL", "Region":"", "Country":"US", "Zip_Code":"33143", "Metro": "Miami, FL",  "url_id": "3c9f459db8c5446336970b5546cdf657fb3e37a2"}, "geometry": {"type":"Point","coordinates":[-80.2946293999,25.7039939000]}},
{"type":"Feature", "id": 4307, "properties": { "Company": "Huron Consulting Group Inc.", "Ticker": "HURN", "Market_Cap": "Small-Cap ($200M - $2B)", "Street_One":"550 West Van Buren Street", "Street_Two":"", "City":"Chicago", "State":"IL", "Region":"", "Country":"US", "Zip_Code":"60607", "Metro": "Chicago, IL",  "url_id": "a24a53192823e431336fcab85f34d3a9a36cbdd9"}, "geometry": {"type":"Point","coordinates":[-87.6416235000,41.8769829000]}},
{"type":"Feature", "id": 4305, "properties": { "Company": "WageWorks, Inc.", "Ticker": "WAGE", "Market_Cap": "Small-Cap ($200M - $2B)", "Street_One":"1100 Park Place", "Street_Two":"", "City":"San Mateo", "State":"CA", "Region":"", "Country":"US", "Zip_Code":"94403", "Metro": "San Francisco, CA",  "url_id": "1e9c0782e9d7cade351e5b03ed241be0d5e91bb6"}, "geometry": {"type":"Point","coordinates":[-122.2905560000,37.5448570000]}},
{"type":"Feature", "id": 4304, "properties": { "Company": "Team, Inc.", "Ticker": "TISI", "Market_Cap": "Small-Cap ($200M - $2B)", "Street_One":"13131 South Dairy Ashford Road", "Street_Two":"", "City":"Sugar Land", "State":"TX", "Region":"", "Country":"US", "Zip_Code":"77478", "Metro": "Houston, TX",  "url_id": "ba525d2057c1e47bcd674de3a1cb88713882acc1"}, "geometry": {"type":"Point","coordinates":[-95.6021380000,29.6257448000]}},
{"type":"Feature", "id": 4303, "properties": { "Company": "Compass Diversified Holdings", "Ticker": "CODI", "Market_Cap": "Small-Cap ($200M - $2B)", "Street_One":"", "Street_Two":"", "City":"", "State":"", "Region":"", "Country":"", "Zip_Code":"", "Metro": "Stamford, CT",  "url_id": "2446b43bb6470009ff598e36230a8bfe89b49bbb"}, "geometry": {"type":"Point","coordinates":[0.0000000000,0.0000000000]}},
{"type":"Feature", "id": 4302, "properties": { "Company": "Forrester Research Inc.", "Ticker": "FORR", "Market_Cap": "Small-Cap ($200M - $2B)", "Street_One":"60 Acorn Park", "Street_Two":"", "City":"Cambridge", "State":"MA", "Region":"", "Country":"US", "Zip_Code":"02140", "Metro": "Boston, MA",  "url_id": "c749af3bf56bdaf5171bb8d978dc7a780e0b2820"}, "geometry": {"type":"Point","coordinates":[-71.1493763000,42.3974449000]}},
{"type":"Feature", "id": 4301, "properties": { "Company": "The E. W. Scripps Company", "Ticker": "SSP", "Market_Cap": "Small-Cap ($200M - $2B)", "Street_One":"312 Walnut Street", "Street_Two":"", "City":"Cincinnati", "State":"OH", "Region":"", "Country":"US", "Zip_Code":"45202", "Metro": "Cincinnati, OH",  "url_id": "16b48b35df3d0eeef5fd319ad27f6cd7225bf70d"}, "geometry": {"type":"Point","coordinates":[-84.5103560000,39.0992300000]}},
{"type":"Feature", "id": 4300, "properties": { "Company": "Korn/Ferry International", "Ticker": "KFY", "Market_Cap": "Small-Cap ($200M - $2B)", "Street_One":"1900 Avenue Of The Stars", "Street_Two":"", "City":"Los Angeles", "State":"CA", "Region":"", "Country":"US", "Zip_Code":"90067", "Metro": "Los Angeles, CA",  "url_id": "ccd958dd2f997bc73b27893e1a98626bdab1fe04"}, "geometry": {"type":"Point","coordinates":[-118.4165840000,34.0603190000]}},
{"type":"Feature", "id": 4299, "properties": { "Company": "Demandware, Inc.", "Ticker": "DWRE", "Market_Cap": "Small-Cap ($200M - $2B)", "Street_One":"5 Wall Street", "Street_Two":"", "City":"Burlington", "State":"MA", "Region":"", "Country":"US", "Zip_Code":"01803", "Metro": "Boston, MA",  "url_id": "f7dcd43e1f8a2d2ec96e8d8fd5244e118bf19891"}, "geometry": {"type":"Point","coordinates":[-71.1894918000,42.4859031000]}},
{"type":"Feature", "id": 4298, "properties": { "Company": "Universal Forest Products Inc.", "Ticker": "UFPI", "Market_Cap": "Small-Cap ($200M - $2B)", "Street_One":"2801 East Beltline Avenue Northeast", "Street_Two":"", "City":"Grand Rapids", "State":"MI", "Region":"", "Country":"US", "Zip_Code":"49525", "Metro": "Grand Rapids, MI",  "url_id": "6a8e374ecb3b6aaba1c313a229cdc01f89dac240"}, "geometry": {"type":"Point","coordinates":[-85.5905559000,43.0134324000]}},
{"type":"Feature", "id": 4311, "properties": { "Company": "Moneygram International Inc.", "Ticker": "MGI", "Market_Cap": "Small-Cap ($200M - $2B)", "Street_One":"2828 North Harwood Street", "Street_Two":"", "City":"Dallas", "State":"TX", "Region":"", "Country":"US", "Zip_Code":"75201", "Metro": "Dallas, TX",  "url_id": "bae3cc1c75e7cd3fc6276daeee197a1dbb715e32"}, "geometry": {"type":"Point","coordinates":[-96.8081869999,32.7944810000]}},
{"type":"Feature", "id": 4310, "properties": { "Company": "YY Inc.", "Ticker": "YY", "Market_Cap": "Small-Cap ($200M - $2B)", "Street_One":"", "Street_Two":"", "City":"", "State":"", "Region":"", "Country":"", "Zip_Code":"", "Metro": "Guangzhou, CN",  "url_id": "f23204fabb256972ed82eb456935578d0c1c1fd4"}, "geometry": {"type":"Point","coordinates":[0.0000000000,0.0000000000]}},
{"type":"Feature", "id": 4309, "properties": { "Company": "EZCORP, Inc.", "Ticker": "EZPW", "Market_Cap": "Small-Cap ($200M - $2B)", "Street_One":"1901 Capital Parkway", "Street_Two":"", "City":"Austin", "State":"TX", "Region":"", "Country":"US", "Zip_Code":"78746", "Metro": "Austin, TX",  "url_id": "c524d382857d75cefb7d46b21c72c3bb6f3131e5"}, "geometry": {"type":"Point","coordinates":[-97.7981250000,30.2599763000]}},
{"type":"Feature", "id": 4308, "properties": { "Company": "Albany International Corp.", "Ticker": "AIN", "Market_Cap": "Small-Cap ($200M - $2B)", "Street_One":"216 Airport Drive", "Street_Two":"", "City":"Rochester", "State":"NH", "Region":"", "Country":"US", "Zip_Code":"03867", "Metro": "Boston, MA",  "url_id": "93faed089fad96fabcc0f13518229f33d30d09e2"}, "geometry": {"type":"Point","coordinates":[-70.9287978999,43.2872609000]}},
{"type":"Feature", "id": 4287, "properties": { "Company": "RPX Corporation", "Ticker": "RPXC", "Market_Cap": "Small-Cap ($200M - $2B)", "Street_One":"1 Market Street", "Street_Two":"", "City":"San Francisco", "State":"CA", "Region":"", "Country":"US", "Zip_Code":"94105", "Metro": "San Francisco, CA",  "url_id": "6275aed069627d82e68402c8d4d393835a456af3"}, "geometry": {"type":"Point","coordinates":[-122.3951331000,37.7940782000]}},
{"type":"Feature", "id": 4297, "properties": { "Company": "TrueBlue, Inc.", "Ticker": "TBI", "Market_Cap": "Small-Cap ($200M - $2B)", "Street_One":"1015 A Street", "Street_Two":"", "City":"Tacoma", "State":"WA", "Region":"", "Country":"US", "Zip_Code":"98402", "Metro": "Seattle, WA",  "url_id": "9c3af59a3165fa7758c99514751d0988b872706a"}, "geometry": {"type":"Point","coordinates":[-122.4371127000,47.2539853000]}},
{"type":"Feature", "id": 4296, "properties": { "Company": "McGrath Rentcorp", "Ticker": "MGRC", "Market_Cap": "Small-Cap ($200M - $2B)", "Street_One":"5700 Las Positas Road", "Street_Two":"", "City":"Livermore", "State":"CA", "Region":"", "Country":"US", "Zip_Code":"94551", "Metro": "San Francisco, CA",  "url_id": "7dbdb579be3c7e1f48ad7cf445a237176e253777"}, "geometry": {"type":"Point","coordinates":[-121.7262200000,37.7003920000]}},
{"type":"Feature", "id": 4295, "properties": { "Company": "HFF, Inc.", "Ticker": "HF", "Market_Cap": "Small-Cap ($200M - $2B)", "Street_One":"301 Grant Street", "Street_Two":"", "City":"Pittsburgh", "State":"PA", "Region":"", "Country":"US", "Zip_Code":"15219", "Metro": "Pittsburgh, PA",  "url_id": "4b0bd076e869a058f3d8cc5a86a241e28177bdb3"}, "geometry": {"type":"Point","coordinates":[-79.9982823000,40.4380697000]}},
{"type":"Feature", "id": 4294, "properties": { "Company": "WNS (Holdings) Ltd.", "Ticker": "WNS", "Market_Cap": "Small-Cap ($200M - $2B)", "Street_One":"", "Street_Two":"", "City":"", "State":"", "Region":"", "Country":"", "Zip_Code":"", "Metro": "Mumbai, BG",  "url_id": "dbbc1c610f329dc91f5cb87535c72ae36b6e9c2a"}, "geometry": {"type":"Point","coordinates":[0.0000000000,0.0000000000]}},
{"type":"Feature", "id": 4293, "properties": { "Company": "Knoll Inc.", "Ticker": "KNL", "Market_Cap": "Small-Cap ($200M - $2B)", "Street_One":"1235 Water Street", "Street_Two":"", "City":"East Greenville", "State":"PA", "Region":"", "Country":"US", "Zip_Code":"18041", "Metro": "Philadelphia, PA",  "url_id": "84ffe3bb07798571ae927fcc231f02de1fae0f4a"}, "geometry": {"type":"Point","coordinates":[-75.5178150000,40.4162200000]}},
{"type":"Feature", "id": 4292, "properties": { "Company": "LSB Industries Inc.", "Ticker": "LXU", "Market_Cap": "Small-Cap ($200M - $2B)", "Street_One":"16 South Pennsylvania Avenue", "Street_Two":"", "City":"Oklahoma City", "State":"OK", "Region":"", "Country":"US", "Zip_Code":"73107", "Metro": "Oklahoma City, OK",  "url_id": "77439fcdfe87a9957e0114efc9aaeb43b8da5e74"}, "geometry": {"type":"Point","coordinates":[-97.5477173000,35.4661893000]}},
{"type":"Feature", "id": 4291, "properties": { "Company": "Insperity, Inc.", "Ticker": "NSP", "Market_Cap": "Small-Cap ($200M - $2B)", "Street_One":"19001 Crescent Springs Drive", "Street_Two":"", "City":"Humble", "State":"TX", "Region":"", "Country":"US", "Zip_Code":"77339", "Metro": "Houston, TX",  "url_id": "4c1f5133c035fe3355dd019c84d411b027e5e54c"}, "geometry": {"type":"Point","coordinates":[-95.2503830000,30.0492080000]}},
{"type":"Feature", "id": 4290, "properties": { "Company": "Retalix Ltd", "Ticker": "RTLX", "Market_Cap": "Small-Cap ($200M - $2B)", "Street_One":"", "Street_Two":"", "City":"", "State":"", "Region":"", "Country":"", "Zip_Code":"", "Metro": "Tel Aviv, IS",  "url_id": "c976e24bb2d5705736745435d9b1c6ffcc71e313"}, "geometry": {"type":"Point","coordinates":[0.0000000000,0.0000000000]}},
{"type":"Feature", "id": 4285, "properties": { "Company": "M/A-Com Technology Solutions Holdings, Inc.", "Ticker": "MTSI", "Market_Cap": "Small-Cap ($200M - $2B)", "Street_One":"100 Chelmsford Street", "Street_Two":"", "City":"Lowell", "State":"MA", "Region":"", "Country":"US", "Zip_Code":"01851", "Metro": "Boston, MA",  "url_id": "5b00c9363fbfd6baee28418a51079e800828c2df"}, "geometry": {"type":"Point","coordinates":[-71.3167402999,42.6365430000]}},
{"type":"Feature", "id": 4289, "properties": { "Company": "Exponent Inc.", "Ticker": "EXPO", "Market_Cap": "Small-Cap ($200M - $2B)", "Street_One":"149 Commonwealth Drive", "Street_Two":"", "City":"Menlo Park", "State":"CA", "Region":"", "Country":"US", "Zip_Code":"94025", "Metro": "San Francisco, CA",  "url_id": "0155d2fc5af75b2c771cbb7d9a01b23093a5fd4e"}, "geometry": {"type":"Point","coordinates":[-122.1738680000,37.4810520000]}},
{"type":"Feature", "id": 4288, "properties": { "Company": "Village Super Market Inc.", "Ticker": "VLGEA", "Market_Cap": "Small-Cap ($200M - $2B)", "Street_One":"733 Mountain Avenue", "Street_Two":"", "City":"Springfield Township", "State":"NJ", "Region":"", "Country":"US", "Zip_Code":"07081", "Metro": "New York, NY",  "url_id": "f89cf3573bfbf00131515009a02c9dc44f95ebdf"}, "geometry": {"type":"Point","coordinates":[-74.3310910000,40.6898630000]}},
{"type":"Feature", "id": 4286, "properties": { "Company": "Alamos Gold Inc.", "Ticker": "AGI", "Market_Cap": "Small-Cap ($200M - $2B)", "Street_One":"130 Adelaide Street West", "Street_Two":"", "City":"Toronto", "State":"ON", "Region":"", "Country":"CA", "Zip_Code":"M5H 3P5", "Metro": "Toronto, ON",  "url_id": "c87c8e24cd1ef413d6c23b54a106af534520d57b"}, "geometry": {"type":"Point","coordinates":[-79.3835376999,43.6493671000]}},
{"type":"Feature", "id": 4272, "properties": { "Company": "Performant Financial Corporation", "Ticker": "PFMT", "Market_Cap": "Small-Cap ($200M - $2B)", "Street_One":"333 North Canyons Parkway", "Street_Two":"", "City":"Livermore", "State":"CA", "Region":"", "Country":"US", "Zip_Code":"94551", "Metro": "San Francisco, CA",  "url_id": "cdf99fd2feeb92960b8821d8125e5c110b584e35"}, "geometry": {"type":"Point","coordinates":[-121.8110380000,37.7053450000]}},
{"type":"Feature", "id": 4284, "properties": { "Company": "Texas Pacific Land Trust", "Ticker": "TPL", "Market_Cap": "Small-Cap ($200M - $2B)", "Street_One":"1700 Pacific Avenue", "Street_Two":"", "City":"Dallas", "State":"TX", "Region":"", "Country":"US", "Zip_Code":"75201", "Metro": "Dallas, TX",  "url_id": "357c459587408aaac6d159f6c87b59557cee0ad4"}, "geometry": {"type":"Point","coordinates":[-96.7963286999,32.7821318000]}},
{"type":"Feature", "id": 4283, "properties": { "Company": "Kelly Services, Inc.", "Ticker": "KELYA", "Market_Cap": "Small-Cap ($200M - $2B)", "Street_One":"999 West Big Beaver Road", "Street_Two":"", "City":"Troy", "State":"MI", "Region":"", "Country":"US", "Zip_Code":"48084", "Metro": "Detroit, MI",  "url_id": "6f36cd5491fc344d8ec40b2378959a488c995592"}, "geometry": {"type":"Point","coordinates":[-83.1654095000,42.5594026000]}},
{"type":"Feature", "id": 4282, "properties": { "Company": "Quanex Building Products Corporation", "Ticker": "NX", "Market_Cap": "Small-Cap ($200M - $2B)", "Street_One":"1900 West Street", "Street_Two":"", "City":"Houston", "State":"TX", "Region":"", "Country":"US", "Zip_Code":"77026", "Metro": "Houston, TX",  "url_id": "42fcf307cca4c84b8b621232829deff7aab06c3c"}, "geometry": {"type":"Point","coordinates":[-95.3457741000,29.7785617000]}},
{"type":"Feature", "id": 4281, "properties": { "Company": "Navigant Consulting Inc.", "Ticker": "NCI", "Market_Cap": "Small-Cap ($200M - $2B)", "Street_One":"30 South Wacker Drive", "Street_Two":"", "City":"Chicago", "State":"IL", "Region":"", "Country":"US", "Zip_Code":"60606", "Metro": "Chicago, IL",  "url_id": "e67233e1de39a43d53f5052ef1a0b93ea2c28e75"}, "geometry": {"type":"Point","coordinates":[-87.6375219999,41.8812179000]}},
{"type":"Feature", "id": 4280, "properties": { "Company": "NewStar Financial, Inc.", "Ticker": "NEWS", "Market_Cap": "Small-Cap ($200M - $2B)", "Street_One":"500 Boylston Street", "Street_Two":"", "City":"Boston", "State":"MA", "Region":"", "Country":"US", "Zip_Code":"02116", "Metro": "Boston, MA",  "url_id": "38e831ebe9c87582230783c2603da41112e256f2"}, "geometry": {"type":"Point","coordinates":[-71.0743190000,42.3504080000]}},
{"type":"Feature", "id": 4279, "properties": { "Company": "Permian Basin Royalty Trust", "Ticker": "PBT", "Market_Cap": "Small-Cap ($200M - $2B)", "Street_One":"901 Main Street", "Street_Two":"", "City":"Dallas", "State":"TX", "Region":"", "Country":"US", "Zip_Code":"75202", "Metro": "Dallas, TX",  "url_id": "a63cc4caf5f71bbf8194f4514fe0cec9507a21ad"}, "geometry": {"type":"Point","coordinates":[-96.8037329000,32.7800830000]}},
{"type":"Feature", "id": 4278, "properties": { "Company": "Comverse, Inc.", "Ticker": "CNSI", "Market_Cap": "Small-Cap ($200M - $2B)", "Street_One":"810 7th Avenue", "Street_Two":"", "City":"New York", "State":"NY", "Region":"", "Country":"US", "Zip_Code":"10019", "Metro": "New York, NY",  "url_id": "e049ab473f8014fff42b3ff94efc4a0b509bd2b9"}, "geometry": {"type":"Point","coordinates":[-73.9819770000,40.7628370000]}},
{"type":"Feature", "id": 4277, "properties": { "Company": "Envestnet, Inc.", "Ticker": "ENV", "Market_Cap": "Small-Cap ($200M - $2B)", "Street_One":"35 East Wacker Drive", "Street_Two":"", "City":"Chicago", "State":"IL", "Region":"", "Country":"US", "Zip_Code":"60601", "Metro": "Chicago, IL",  "url_id": "37f9016d82f3d59a94ff90fe611376a036d69b9f"}, "geometry": {"type":"Point","coordinates":[-87.6267867000,41.8866240000]}},
{"type":"Feature", "id": 4276, "properties": { "Company": "Green Dot Corporation", "Ticker": "GDOT", "Market_Cap": "Small-Cap ($200M - $2B)", "Street_One":"", "Street_Two":"", "City":"", "State":"", "Region":"", "Country":"", "Zip_Code":"", "Metro": "Los Angeles, CA",  "url_id": "5ef96273305370b2c41ae6e64c550fc82620f9c0"}, "geometry": {"type":"Point","coordinates":[0.0000000000,0.0000000000]}},
{"type":"Feature", "id": 4275, "properties": { "Company": "InnerWorkings Inc.", "Ticker": "INWK", "Market_Cap": "Small-Cap ($200M - $2B)", "Street_One":"600 West Chicago Avenue", "Street_Two":"", "City":"Chicago", "State":"IL", "Region":"", "Country":"US", "Zip_Code":"60654", "Metro": "Chicago, IL",  "url_id": "7e8cbe987d2e9629592a31089004ea00d7256522"}, "geometry": {"type":"Point","coordinates":[-87.6435474000,41.8969173000]}},
{"type":"Feature", "id": 4274, "properties": { "Company": "NL Industries Inc.", "Ticker": "NL", "Market_Cap": "Small-Cap ($200M - $2B)", "Street_One":"5430 Lyndon B Johnson Freeway", "Street_Two":"", "City":"Dallas", "State":"TX", "Region":"", "Country":"US", "Zip_Code":"75240", "Metro": "Dallas, TX",  "url_id": "6282db487b5b784ec853d13da2638238d913a072"}, "geometry": {"type":"Point","coordinates":[-96.8166222000,32.9246606000]}},
{"type":"Feature", "id": 4273, "properties": { "Company": "TMS International Corp.", "Ticker": "TMS", "Market_Cap": "Small-Cap ($200M - $2B)", "Street_One":"12 Monongahela Avenue", "Street_Two":"", "City":"Glassport", "State":"PA", "Region":"", "Country":"US", "Zip_Code":"15045", "Metro": "Pittsburgh, PA",  "url_id": "9c273986f1de95979d51efb5cf040b1563d5585b"}, "geometry": {"type":"Point","coordinates":[-79.8906690000,40.3360628000]}},
{"type":"Feature", "id": 4271, "properties": { "Company": "Dice Holdings, Inc.", "Ticker": "DHX", "Market_Cap": "Small-Cap ($200M - $2B)", "Street_One":"1040 Avenue Of The Americas", "Street_Two":"", "City":"New York", "State":"NY", "Region":"", "Country":"US", "Zip_Code":"10018", "Metro": "New York, NY",  "url_id": "cfed500f32d32e67ac6f43ea7459c1a4d5d66b53"}, "geometry": {"type":"Point","coordinates":[-73.9850359000,40.7529960000]}},
{"type":"Feature", "id": 4258, "properties": { "Company": "MDC Partners Inc.", "Ticker": "MDCA", "Market_Cap": "Small-Cap ($200M - $2B)", "Street_One":"745 5th Avenue", "Street_Two":"", "City":"New York", "State":"NY", "Region":"", "Country":"US", "Zip_Code":"10022", "Metro": "New York, NY",  "url_id": "858be6c27c31709e249f06177085e7ee85ce611f"}, "geometry": {"type":"Point","coordinates":[-73.9735730000,40.7634620000]}},
{"type":"Feature", "id": 4257, "properties": { "Company": "Era Group Inc.", "Ticker": "ERA", "Market_Cap": "Small-Cap ($200M - $2B)", "Street_One":"Town & Country Boulevard", "Street_Two":"", "City":"Houston", "State":"TX", "Region":"", "Country":"US", "Zip_Code":"77024", "Metro": "Houston, TX",  "url_id": "eb01f164e0e82af91e87491e8f36b02c37686b0f"}, "geometry": {"type":"Point","coordinates":[-95.5605858999,29.7797869000]}},
{"type":"Feature", "id": 4270, "properties": { "Company": "TNS Inc", "Ticker": "TNS", "Market_Cap": "Small-Cap ($200M - $2B)", "Street_One":"11480 Commerce Park Drive", "Street_Two":"", "City":"Reston", "State":"VA", "Region":"", "Country":"US", "Zip_Code":"20191", "Metro": "Washington, DC",  "url_id": "e641e707a32739610d7273dd7ea8439dbff01995"}, "geometry": {"type":"Point","coordinates":[-77.3429453000,38.9469438000]}},
{"type":"Feature", "id": 4269, "properties": { "Company": "ICF International Inc.", "Ticker": "ICFI", "Market_Cap": "Small-Cap ($200M - $2B)", "Street_One":"9300 Lee Highway", "Street_Two":"", "City":"Fairfax", "State":"VA", "Region":"", "Country":"US", "Zip_Code":"22031", "Metro": "Washington, DC",  "url_id": "24c75eb01414729385df980386999381e86d07ab"}, "geometry": {"type":"Point","coordinates":[-77.2630740000,38.8728830000]}},
{"type":"Feature", "id": 4268, "properties": { "Company": "Kforce Inc.", "Ticker": "KFRC", "Market_Cap": "Small-Cap ($200M - $2B)", "Street_One":"1001 East Palm Avenue", "Street_Two":"", "City":"Tampa", "State":"FL", "Region":"", "Country":"US", "Zip_Code":"33605", "Metro": "Tampa, FL",  "url_id": "1a151e3bd07b3113cb483070d5d2d7ecd23c28d7"}, "geometry": {"type":"Point","coordinates":[-82.4493289999,27.9613350000]}},
{"type":"Feature", "id": 4267, "properties": { "Company": "American Science & Engineering Inc.", "Ticker": "ASEI", "Market_Cap": "Small-Cap ($200M - $2B)", "Street_One":"829 Middlesex Turnpike", "Street_Two":"", "City":"Billerica", "State":"MA", "Region":"", "Country":"US", "Zip_Code":"01821", "Metro": "Boston, MA",  "url_id": "173a18ebda4b0966694b46b55961a9a50dda20df"}, "geometry": {"type":"Point","coordinates":[-71.2530761000,42.5246162000]}},
{"type":"Feature", "id": 4266, "properties": { "Company": "Viad Corp", "Ticker": "VVI", "Market_Cap": "Small-Cap ($200M - $2B)", "Street_One":"1850 North Central Avenue", "Street_Two":"", "City":"Phoenix", "State":"AZ", "Region":"", "Country":"US", "Zip_Code":"85004", "Metro": "Phoenix, AZ",  "url_id": "27d736d4701ad4dd08895d985f18eeb40f241576"}, "geometry": {"type":"Point","coordinates":[-112.0743150000,33.4689880000]}},
{"type":"Feature", "id": 4265, "properties": { "Company": "Denison Mines Corp.", "Ticker": "DNN", "Market_Cap": "Small-Cap ($200M - $2B)", "Street_One":"", "Street_Two":"", "City":"", "State":"", "Region":"", "Country":"", "Zip_Code":"", "Metro": "Toronto, ON",  "url_id": "9312c43e45005b546044d11a3e833938cb00492b"}, "geometry": {"type":"Point","coordinates":[0.0000000000,0.0000000000]}},
{"type":"Feature", "id": 4264, "properties": { "Company": "MakeMyTrip Limited", "Ticker": "MMYT", "Market_Cap": "Small-Cap ($200M - $2B)", "Street_One":"", "Street_Two":"", "City":"", "State":"", "Region":"", "Country":"", "Zip_Code":"", "Metro": "New Delhi, BG",  "url_id": "96372dc5e14781f08983edd36594da52079ea4ef"}, "geometry": {"type":"Point","coordinates":[0.0000000000,0.0000000000]}},
{"type":"Feature", "id": 4263, "properties": { "Company": "Nacco Industries Inc.", "Ticker": "NC", "Market_Cap": "Small-Cap ($200M - $2B)", "Street_One":"5875 Landerbrook Drive", "Street_Two":"", "City":"Cleveland", "State":"OH", "Region":"", "Country":"US", "Zip_Code":"44124", "Metro": "Cleveland, OH",  "url_id": "a0cf735048374fa7a824999ef9925015349860ed"}, "geometry": {"type":"Point","coordinates":[-81.4649163000,41.5051609000]}},
{"type":"Feature", "id": 4262, "properties": { "Company": "Cass Information Systems Inc.", "Ticker": "CASS", "Market_Cap": "Small-Cap ($200M - $2B)", "Street_One":"12444 Powerscourt Drive", "Street_Two":"", "City":"St. Louis", "State":"MO", "Region":"", "Country":"US", "Zip_Code":"63131", "Metro": "St. Louis, MO",  "url_id": "b4fe800be6d75f7eee27eb92657dc2f1236df0cd"}, "geometry": {"type":"Point","coordinates":[-90.4498909000,38.6063170000]}},
{"type":"Feature", "id": 4261, "properties": { "Company": "Overstock.com Inc.", "Ticker": "OSTK", "Market_Cap": "Small-Cap ($200M - $2B)", "Street_One":"6350 South 3000 East", "Street_Two":"", "City":"Salt Lake City", "State":"UT", "Region":"", "Country":"US", "Zip_Code":"84121", "Metro": "Salt Lake City, UT",  "url_id": "f13aae94f42ea660243766d86429aecf24c3a957"}, "geometry": {"type":"Point","coordinates":[-111.8086437000,40.6334361000]}},
{"type":"Feature", "id": 4260, "properties": { "Company": "KiOR, Inc.", "Ticker": "KIOR", "Market_Cap": "Small-Cap ($200M - $2B)", "Street_One":"13001 Bay Park Road", "Street_Two":"", "City":"Pasadena", "State":"TX", "Region":"", "Country":"US", "Zip_Code":"77507", "Metro": "Houston, TX",  "url_id": "827ab4f6c1befe8cb2c8e742c83a322ca6ec4a1e"}, "geometry": {"type":"Point","coordinates":[-95.0654084000,29.6425298000]}},
{"type":"Feature", "id": 4259, "properties": { "Company": "New Mountain Finance Corporation", "Ticker": "NMFC", "Market_Cap": "Small-Cap ($200M - $2B)", "Street_One":"787 7th Avenue", "Street_Two":"", "City":"New York", "State":"NY", "Region":"", "Country":"US", "Zip_Code":"10019", "Metro": "New York, NY",  "url_id": "a3a4ac9a60598172048fd5fa087bdea869c3e302"}, "geometry": {"type":"Point","coordinates":[-73.9823870000,40.7619230000]}},
{"type":"Feature", "id": 4251, "properties": { "Company": "Pendrell Corporation", "Ticker": "PCO", "Market_Cap": "Small-Cap ($200M - $2B)", "Street_One":"2300 Carillon Point", "Street_Two":"", "City":"Kirkland", "State":"WA", "Region":"", "Country":"US", "Zip_Code":"98033", "Metro": "Seattle, WA",  "url_id": "c006abc2f8c10b6cf97f2c3436f42fa2b9ddf9a5"}, "geometry": {"type":"Point","coordinates":[-122.2064044000,47.6564398000]}},
{"type":"Feature", "id": 4256, "properties": { "Company": "ReachLocal, Inc.", "Ticker": "RLOC", "Market_Cap": "Small-Cap ($200M - $2B)", "Street_One":"21700 Oxnard Street", "Street_Two":"", "City":"Los Angeles", "State":"CA", "Region":"", "Country":"US", "Zip_Code":"91367", "Metro": "Los Angeles, CA",  "url_id": "757ca2cd65c9c7f41bcf670c757ce8d3a20b1ce5"}, "geometry": {"type":"Point","coordinates":[-118.6030902000,34.1790786000]}},
{"type":"Feature", "id": 4255, "properties": { "Company": "Resources Connection Inc.", "Ticker": "RECN", "Market_Cap": "Small-Cap ($200M - $2B)", "Street_One":"17101 Armstrong Avenue", "Street_Two":"", "City":"Irvine", "State":"CA", "Region":"", "Country":"US", "Zip_Code":"92614", "Metro": "Los Angeles, CA",  "url_id": "022f93eda9823da287ca2187efe5dd4719b24cd6"}, "geometry": {"type":"Point","coordinates":[-117.8450620000,33.6956250000]}},
{"type":"Feature", "id": 4254, "properties": { "Company": "EnerNOC, Inc.", "Ticker": "ENOC", "Market_Cap": "Small-Cap ($200M - $2B)", "Street_One":"101 Federal Street", "Street_Two":"", "City":"Boston", "State":"MA", "Region":"", "Country":"US", "Zip_Code":"02110", "Metro": "Boston, MA",  "url_id": "f88752e75b575338048e43c9fffd2a456317e1fd"}, "geometry": {"type":"Point","coordinates":[-71.0568260000,42.3549490000]}},
{"type":"Feature", "id": 4253, "properties": { "Company": "Checkpoint Systems Inc.", "Ticker": "CKP", "Market_Cap": "Small-Cap ($200M - $2B)", "Street_One":"101 Wolf Drive", "Street_Two":"", "City":"Thorofare", "State":"NJ", "Region":"", "Country":"US", "Zip_Code":"08086", "Metro": "New York, NY",  "url_id": "c4c468020c153963a30a4d6e9878b45aaafdfe79"}, "geometry": {"type":"Point","coordinates":[-75.1916700000,39.8312350000]}},
{"type":"Feature", "id": 4252, "properties": { "Company": "Higher One Holdings, Inc.", "Ticker": "ONE", "Market_Cap": "Small-Cap ($200M - $2B)", "Street_One":"115 Munson Street", "Street_Two":"", "City":"New Haven", "State":"CT", "Region":"", "Country":"US", "Zip_Code":"06511", "Metro": "Stamford, CT",  "url_id": "cd9a42cf3f886efa2f4b45d98a9a10997d01e739"}, "geometry": {"type":"Point","coordinates":[-72.9284066000,41.3214729000]}},
{"type":"Feature", "id": 4250, "properties": { "Company": "Arlington Asset Investment Corp.", "Ticker": "AI", "Market_Cap": "Small-Cap ($200M - $2B)", "Street_One":"1001 19th Street North", "Street_Two":"", "City":"Arlington", "State":"VA", "Region":"", "Country":"US", "Zip_Code":"22209", "Metro": "Washington, DC",  "url_id": "42a0ac1a41a236c80a0d6d9fbb2b795999df3ab3"}, "geometry": {"type":"Point","coordinates":[-77.0693058000,38.8972750000]}},
{"type":"Feature", "id": 4249, "properties": { "Company": "Multi-Color Corp.", "Ticker": "LABL", "Market_Cap": "Small-Cap ($200M - $2B)", "Street_One":"4053 Clough Woods Drive", "Street_Two":"", "City":"Batavia", "State":"OH", "Region":"", "Country":"US", "Zip_Code":"45103", "Metro": "Rochester, NY",  "url_id": "3abf41f890108832cd628b62898569fbf93f0c5e"}, "geometry": {"type":"Point","coordinates":[-84.2505049999,39.0629230000]}},
{"type":"Feature", "id": 4248, "properties": { "Company": "Steel Partners Holdings L.P", "Ticker": "SPLP", "Market_Cap": "Small-Cap ($200M - $2B)", "Street_One":"590 Madison Avenue", "Street_Two":"", "City":"New York", "State":"NY", "Region":"", "Country":"US", "Zip_Code":"10022", "Metro": "New York, NY",  "url_id": "9063b652478d4d7a59abe31f8a10fb2f37c6ebfd"}, "geometry": {"type":"Point","coordinates":[-73.9726692999,40.7621490999]}},
{"type":"Feature", "id": 4247, "properties": { "Company": "Electro Rent Corporation", "Ticker": "ELRC", "Market_Cap": "Small-Cap ($200M - $2B)", "Street_One":"6060 Sepulveda Boulevard", "Street_Two":"", "City":"Van Nuys", "State":"CA", "Region":"", "Country":"US", "Zip_Code":"91411", "Metro": "Los Angeles, CA",  "url_id": "b95c666df899422533aff1bbafe3a7e454a652a2"}, "geometry": {"type":"Point","coordinates":[-118.4659804000,34.1799854000]}},
{"type":"Feature", "id": 4246, "properties": { "Company": "Engility Holdings, Inc.", "Ticker": "EGL", "Market_Cap": "Small-Cap ($200M - $2B)", "Street_One":"3750 Centerview Drive", "Street_Two":"", "City":"Chantilly", "State":"VA", "Region":"", "Country":"US", "Zip_Code":"20151", "Metro": "Washington, DC",  "url_id": "134a74e9aca8c8a99ae304cc9ed21cd7eb79851b"}, "geometry": {"type":"Point","coordinates":[-77.4290956999,38.9011255000]}},
{"type":"Feature", "id": 4245, "properties": { "Company": "PC Connection, Inc.", "Ticker": "PCCC", "Market_Cap": "Small-Cap ($200M - $2B)", "Street_One":"730 Milford Road", "Street_Two":"", "City":"Merrimack", "State":"NH", "Region":"", "Country":"US", "Zip_Code":"03054", "Metro": "Boston, MA",  "url_id": "f4795c9306c2ffb435f976f9fa2db200187aa905"}, "geometry": {"type":"Point","coordinates":[-71.5488515999,42.8030639000]}},
{"type":"Feature", "id": 4244, "properties": { "Company": "Unifi Inc.", "Ticker": "UFI", "Market_Cap": "Small-Cap ($200M - $2B)", "Street_One":"7201 West Friendly Avenue", "Street_Two":"", "City":"Greensboro", "State":"NC", "Region":"", "Country":"US", "Zip_Code":"27410", "Metro": "Greensboro, NC",  "url_id": "912fa5942009aa51f94fa59830aba8f9916a111c"}, "geometry": {"type":"Point","coordinates":[-79.9227480000,36.0873410000]}},
{"type":"Feature", "id": 4243, "properties": { "Company": "Barrett Business Services Inc.", "Ticker": "BBSI", "Market_Cap": "Small-Cap ($200M - $2B)", "Street_One":"8100 Northeast Parkway Drive", "Street_Two":"", "City":"Vancouver", "State":"WA", "Region":"", "Country":"US", "Zip_Code":"98662", "Metro": "Portland, OR",  "url_id": "762e73034a8324ece48dd9b1b6647d6cb44c33c7"}, "geometry": {"type":"Point","coordinates":[-122.5911890000,45.6557790000]}},
{"type":"Feature", "id": 4242, "properties": { "Company": "Seneca Foods Corp.", "Ticker": "SENEA", "Market_Cap": "Small-Cap ($200M - $2B)", "Street_One":"3736 South Main Street", "Street_Two":"", "City":"Marion", "State":"NY", "Region":"", "Country":"US", "Zip_Code":"14505", "Metro": "Rochester, NY",  "url_id": "19b82b02c1544bebca6f08840a95c36bb71480d3"}, "geometry": {"type":"Point","coordinates":[-77.1915339999,43.1396469000]}},
{"type":"Feature", "id": 4241, "properties": { "Company": "1-800-Flowers.com Inc.", "Ticker": "FLWS", "Market_Cap": "Small-Cap ($200M - $2B)", "Street_One":"1 Old Country Road", "Street_Two":"", "City":"Carle Place", "State":"NY", "Region":"", "Country":"US", "Zip_Code":"11514", "Metro": "New York, NY",  "url_id": "63dcf8fd0e52ea79b70694b7992b0710ab789562"}, "geometry": {"type":"Point","coordinates":[-73.6217389999,40.7436710000]}},
{"type":"Feature", "id": 4239, "properties": { "Company": "Safeguard Scientifics, Inc.", "Ticker": "SFE", "Market_Cap": "Small-Cap ($200M - $2B)", "Street_One":"435 Devon Park Drive", "Street_Two":"", "City":"Wayne", "State":"PA", "Region":"", "Country":"US", "Zip_Code":"19087", "Metro": "Philadelphia, PA",  "url_id": "756e107adf2647f7f0ef78f946fc29af1a9c9b9b"}, "geometry": {"type":"Point","coordinates":[-75.4209705999,40.0726075000]}},
{"type":"Feature", "id": 4230, "properties": { "Company": "Northern Dynasty Minerals Ltd.", "Ticker": "NAK", "Market_Cap": "Small-Cap ($200M - $2B)", "Street_One":"1040 West Georgia Street", "Street_Two":"", "City":"Vancouver", "State":"BC", "Region":"", "Country":"CA", "Zip_Code":"V6E", "Metro": "Vancouver, BC",  "url_id": "2f778e35ad3cd346b6de088090a6bce3a817ce9a"}, "geometry": {"type":"Point","coordinates":[-123.1224110000,49.2851080000]}},
{"type":"Feature", "id": 4229, "properties": { "Company": "Gladstone Commercial Corp.", "Ticker": "GOOD", "Market_Cap": "Small-Cap ($200M - $2B)", "Street_One":"1521 Westbranch Drive", "Street_Two":"", "City":"Mc Lean", "State":"VA", "Region":"", "Country":"US", "Zip_Code":"22102", "Metro": "Washington, DC",  "url_id": "e5aecb6eae7a4de879c33411fd9976632feb7a81"}, "geometry": {"type":"Point","coordinates":[-77.2205649000,38.9271930000]}},
{"type":"Feature", "id": 4238, "properties": { "Company": "E-Commerce China Dangdang Inc.", "Ticker": "DANG", "Market_Cap": "Small-Cap ($200M - $2B)", "Street_One":"", "Street_Two":"", "City":"", "State":"", "Region":"", "Country":"", "Zip_Code":"", "Metro": "Beijing, CN",  "url_id": "89a3cd8896ff86d4aec3ee998114cf0fdc782c51"}, "geometry": {"type":"Point","coordinates":[0.0000000000,0.0000000000]}},
{"type":"Feature", "id": 4228, "properties": { "Company": "Swisher Hygiene Inc.", "Ticker": "SWSH", "Market_Cap": "Small-Cap ($200M - $2B)", "Street_One":"4725 Piedmont Row Drive", "Street_Two":"", "City":"Charlotte", "State":"NC", "Region":"", "Country":"US", "Zip_Code":"28210", "Metro": "Charlotte, NC",  "url_id": "87e74bc71097628784ad906172b8a88561a1d4e4"}, "geometry": {"type":"Point","coordinates":[-80.8397114000,35.1516679000]}},
{"type":"Feature", "id": 4237, "properties": { "Company": "CBIZ, Inc.", "Ticker": "CBZ", "Market_Cap": "Small-Cap ($200M - $2B)", "Street_One":"6050 Oak Tree Boulevard", "Street_Two":"", "City":"Independence", "State":"OH", "Region":"", "Country":"US", "Zip_Code":"44131", "Metro": "Cleveland, OH",  "url_id": "b771f34ea40f29791c5c9534109588905562931f"}, "geometry": {"type":"Point","coordinates":[-81.6618220000,41.3961970000]}},
{"type":"Feature", "id": 4236, "properties": { "Company": "CDI Corp.", "Ticker": "CDI", "Market_Cap": "Small-Cap ($200M - $2B)", "Street_One":"1717 Arch Street", "Street_Two":"", "City":"Philadelphia", "State":"PA", "Region":"", "Country":"US", "Zip_Code":"19103", "Metro": "Philadelphia, PA",  "url_id": "03c05bdf84d9fb333580111e869ac47ed6dcebed"}, "geometry": {"type":"Point","coordinates":[-75.1691010000,39.9553130000]}},
{"type":"Feature", "id": 4235, "properties": { "Company": "Renewable Energy Group, Inc.", "Ticker": "REGI", "Market_Cap": "Small-Cap ($200M - $2B)", "Street_One":"416 South Bell Avenue", "Street_Two":"", "City":"Ames", "State":"IA", "Region":"", "Country":"US", "Zip_Code":"50010", "Metro": "Des Moines, IA",  "url_id": "315b357350dd8edb17a75afa24c2f9e04dcfc0d8"}, "geometry": {"type":"Point","coordinates":[-93.5735100000,42.0185550000]}},
{"type":"Feature", "id": 4234, "properties": { "Company": "Aegean Marine Petroleum Network Inc.", "Ticker": "ANW", "Market_Cap": "Small-Cap ($200M - $2B)", "Street_One":"", "Street_Two":"", "City":"", "State":"", "Region":"", "Country":"", "Zip_Code":"", "Metro": "Athens, GR",  "url_id": "7ce40ab6ee468f5f4397ad60bbe3e694564e8ee4"}, "geometry": {"type":"Point","coordinates":[0.0000000000,0.0000000000]}},
{"type":"Feature", "id": 4233, "properties": { "Company": "Carbonite, Inc.", "Ticker": "CARB", "Market_Cap": "Small-Cap ($200M - $2B)", "Street_One":"177 Huntington Avenue", "Street_Two":"", "City":"Boston", "State":"MA", "Region":"", "Country":"US", "Zip_Code":"02115", "Metro": "Boston, MA",  "url_id": "4fe03e8a250da88a37fbd86d63735a3031bb2352"}, "geometry": {"type":"Point","coordinates":[-71.0824681000,42.3450400000]}},
{"type":"Feature", "id": 4240, "properties": { "Company": "Consolidated Graphics, Inc.", "Ticker": "CGX", "Market_Cap": "Small-Cap ($200M - $2B)", "Street_One":"5858 Westheimer Road", "Street_Two":"", "City":"Houston", "State":"TX", "Region":"", "Country":"US", "Zip_Code":"77057", "Metro": "Houston, TX",  "url_id": "346119595fe0a4f4390c78299feeae18d901b926"}, "geometry": {"type":"Point","coordinates":[-95.4837330000,29.7389524000]}},
{"type":"Feature", "id": 4232, "properties": { "Company": "PowerSecure International, Inc.", "Ticker": "POWR", "Market_Cap": "Small-Cap ($200M - $2B)", "Street_One":"1609 Heritage Commerce Court", "Street_Two":"", "City":"Wake Forest", "State":"NC", "Region":"", "Country":"US", "Zip_Code":"27587", "Metro": "Raleigh, NC",  "url_id": "1f6003926d8257c7a741d00bb0da3af8894cbe94"}, "geometry": {"type":"Point","coordinates":[-78.5153799000,35.9519260000]}},
{"type":"Feature", "id": 4231, "properties": { "Company": "Argan, Inc.", "Ticker": "AGX", "Market_Cap": "Small-Cap ($200M - $2B)", "Street_One":"1 Church Street", "Street_Two":"", "City":"Rockville", "State":"MD", "Region":"", "Country":"US", "Zip_Code":"20850", "Metro": "Washington, DC",  "url_id": "ef0df38337c17dc0e264652f2b25cb9056b70d49"}, "geometry": {"type":"Point","coordinates":[-77.1462750000,39.0834050000]}},
{"type":"Feature", "id": 4221, "properties": { "Company": "The McClatchy Company", "Ticker": "MNI", "Market_Cap": "Small-Cap ($200M - $2B)", "Street_One":"2100 Q Street", "Street_Two":"", "City":"Sacramento", "State":"CA", "Region":"", "Country":"US", "Zip_Code":"95816", "Metro": "San Francisco, CA",  "url_id": "fc0a59e71f8ba6250522c1c6f4fef09e8171d0be"}, "geometry": {"type":"Point","coordinates":[-121.4813869000,38.5685996000]}},
{"type":"Feature", "id": 4218, "properties": { "Company": "Hallador Energy Company", "Ticker": "HNRG", "Market_Cap": "Micro-Cap (<$200M)", "Street_One":"1660 Lincoln Street", "Street_Two":"", "City":"Denver", "State":"CO", "Region":"", "Country":"US", "Zip_Code":"80264", "Metro": "Denver, CO",  "url_id": "9aec6a527727c7474710ca5dc6969b5ece38b5e0"}, "geometry": {"type":"Point","coordinates":[-104.9857670000,39.7429140000]}},
{"type":"Feature", "id": 4217, "properties": { "Company": "Culp Inc.", "Ticker": "CFI", "Market_Cap": "Micro-Cap (<$200M)", "Street_One":"1823 Eastchester Drive", "Street_Two":"", "City":"High Point", "State":"NC", "Region":"", "Country":"US", "Zip_Code":"27265", "Metro": "Greensboro, NC",  "url_id": "816d0ac703e8e1439789c123dfde2dc74595f091"}, "geometry": {"type":"Point","coordinates":[-79.9886528999,36.0075582000]}},
{"type":"Feature", "id": 4219, "properties": { "Company": "Amyris, Inc.", "Ticker": "AMRS", "Market_Cap": "Small-Cap ($200M - $2B)", "Street_One":"5885 Hollis Street", "Street_Two":"", "City":"Emeryville", "State":"CA", "Region":"", "Country":"US", "Zip_Code":"94608", "Metro": "San Francisco, CA",  "url_id": "f4c0e9bc33102042bc7bb72522e3120e62c2edcd"}, "geometry": {"type":"Point","coordinates":[-122.2898759000,37.8405997000]}},
{"type":"Feature", "id": 4216, "properties": { "Company": "Digital Generation, Inc.", "Ticker": "DGIT", "Market_Cap": "Micro-Cap (<$200M)", "Street_One":"750 West John W Carpenter Freeway", "Street_Two":"", "City":"Irving", "State":"TX", "Region":"", "Country":"US", "Zip_Code":"75039", "Metro": "Dallas, TX",  "url_id": "6b3734b2bfd3e2585e002830d82eba4277fa8f9a"}, "geometry": {"type":"Point","coordinates":[-96.9559677000,32.8862357000]}},
{"type":"Feature", "id": 4227, "properties": { "Company": "Vringo, Inc.", "Ticker": "VRNG", "Market_Cap": "Small-Cap ($200M - $2B)", "Street_One":"780 3rd Avenue", "Street_Two":"", "City":"New York", "State":"NY", "Region":"", "Country":"US", "Zip_Code":"10017", "Metro": "New York, NY",  "url_id": "a9b21170794ff7d8661a8dbbe072c9b9b72a62fe"}, "geometry": {"type":"Point","coordinates":[-73.9717364000,40.7550005000]}},
{"type":"Feature", "id": 4226, "properties": { "Company": "VOXX International Corporation", "Ticker": "VOXX", "Market_Cap": "Small-Cap ($200M - $2B)", "Street_One":"180 Marcus Boulevard", "Street_Two":"", "City":"Hauppauge", "State":"NY", "Region":"", "Country":"US", "Zip_Code":"11788", "Metro": "New York, NY",  "url_id": "0ea35134f9d89abd370de3bbde28796e32556ee5"}, "geometry": {"type":"Point","coordinates":[-73.2486880000,40.8155969000]}},
{"type":"Feature", "id": 4225, "properties": { "Company": "Heidrick & Struggles International Inc.", "Ticker": "HSII", "Market_Cap": "Small-Cap ($200M - $2B)", "Street_One":"233 South Wacker Drive", "Street_Two":"", "City":"Chicago", "State":"IL", "Region":"", "Country":"US", "Zip_Code":"60606", "Metro": "Chicago, IL",  "url_id": "3cf436696ede77c293f2001ddec7e481e59a70e2"}, "geometry": {"type":"Point","coordinates":[-87.6364782000,41.8788515000]}},
{"type":"Feature", "id": 4224, "properties": { "Company": "Odyssey Marine Exploration Inc.", "Ticker": "OMEX", "Market_Cap": "Small-Cap ($200M - $2B)", "Street_One":"5215 West Laurel Street", "Street_Two":"", "City":"Tampa", "State":"FL", "Region":"", "Country":"US", "Zip_Code":"33607", "Metro": "Tampa, FL",  "url_id": "92775a1732120ce198905146f7fe07c7eb449bf4"}, "geometry": {"type":"Point","coordinates":[-82.5338482000,27.9559442000]}},
{"type":"Feature", "id": 4223, "properties": { "Company": "CRA International Inc.", "Ticker": "CRAI", "Market_Cap": "Small-Cap ($200M - $2B)", "Street_One":"", "Street_Two":"", "City":"", "State":"", "Region":"", "Country":"", "Zip_Code":"", "Metro": "Boston, MA",  "url_id": "add9bf92d9fe9f1ec6c7680189f436a28576f101"}, "geometry": {"type":"Point","coordinates":[0.0000000000,0.0000000000]}},
{"type":"Feature", "id": 4222, "properties": { "Company": "ValueVision Media Inc.", "Ticker": "VVTV", "Market_Cap": "Small-Cap ($200M - $2B)", "Street_One":"6740 Shady Oak Road", "Street_Two":"", "City":"Eden Prairie", "State":"MN", "Region":"", "Country":"US", "Zip_Code":"55344", "Metro": "Minneapolis, MN",  "url_id": "2fd76f8bb9058815d8eae2600b7a3490a272bfb9"}, "geometry": {"type":"Point","coordinates":[-93.4086799999,44.8799880000]}},
{"type":"Feature", "id": 4220, "properties": { "Company": "Media General, Inc.", "Ticker": "MEG", "Market_Cap": "Small-Cap ($200M - $2B)", "Street_One":"333 East Franklin Street", "Street_Two":"", "City":"Richmond", "State":"VA", "Region":"", "Country":"US", "Zip_Code":"23219", "Metro": "Washington, DC",  "url_id": "a4f34cddd17ef4282241ade02e182d5dc0bc6a64"}, "geometry": {"type":"Point","coordinates":[-77.4405781999,37.5419611000]}},
{"type":"Feature", "id": 4204, "properties": { "Company": "Chemung Financial Corp.", "Ticker": "CHMG", "Market_Cap": "Micro-Cap (<$200M)", "Street_One":"Canal Street", "Street_Two":"", "City":"Elmira", "State":"NY", "Region":"", "Country":"US", "Zip_Code":"14901", "Metro": "Rochester, NY",  "url_id": "3e6ff67e171221785fddb83df163478bd2bdc67b"}, "geometry": {"type":"Point","coordinates":[-76.8089590000,42.0988599999]}},
{"type":"Feature", "id": 4203, "properties": { "Company": "Marchex, Inc.", "Ticker": "MCHX", "Market_Cap": "Micro-Cap (<$200M)", "Street_One":"520 Pike Street", "Street_Two":"", "City":"Seattle", "State":"WA", "Region":"", "Country":"US", "Zip_Code":"98101", "Metro": "Seattle, WA",  "url_id": "e8d16008f0b79557997f86abf7a9a64997a02e37"}, "geometry": {"type":"Point","coordinates":[-122.3349940000,47.6112340000]}},
{"type":"Feature", "id": 4205, "properties": { "Company": "New England Realty Associates LP", "Ticker": "NEN", "Market_Cap": "Micro-Cap (<$200M)", "Street_One":"39 Brighton Avenue", "Street_Two":"", "City":"Boston", "State":"MA", "Region":"", "Country":"US", "Zip_Code":"02134", "Metro": "Boston, MA",  "url_id": "99f60c09dcdb1089ce2e6412fffc86555bf14557"}, "geometry": {"type":"Point","coordinates":[-71.1271134000,42.3524726000]}},
{"type":"Feature", "id": 4206, "properties": { "Company": "REX American Resources Corporation", "Ticker": "REX", "Market_Cap": "Micro-Cap (<$200M)", "Street_One":"2875 Needmore Road", "Street_Two":"", "City":"Dayton", "State":"OH", "Region":"", "Country":"US", "Zip_Code":"45414", "Metro": "Cincinnati, OH",  "url_id": "2a5c740c11dfc448bed8c3b852da20a803e22559"}, "geometry": {"type":"Point","coordinates":[-84.1778889000,39.8211930000]}},
{"type":"Feature", "id": 4207, "properties": { "Company": "North American Energy Partners Inc.", "Ticker": "NOA", "Market_Cap": "Micro-Cap (<$200M)", "Street_One":"", "Street_Two":"", "City":"", "State":"", "Region":"", "Country":"", "Zip_Code":"", "Metro": "Calgary, AB",  "url_id": "f723b22abe0eca6538a4b3b0b24d290bacbe84d7"}, "geometry": {"type":"Point","coordinates":[0.0000000000,0.0000000000]}},
{"type":"Feature", "id": 4208, "properties": { "Company": "The Hackett Group, Inc.", "Ticker": "HCKT", "Market_Cap": "Micro-Cap (<$200M)", "Street_One":"1001 Brickell Bay Drive", "Street_Two":"", "City":"Miami", "State":"FL", "Region":"", "Country":"US", "Zip_Code":"33131", "Metro": "Miami, FL",  "url_id": "58bcd746d9a3a16bc398a03b95a7f87734fe01de"}, "geometry": {"type":"Point","coordinates":[-80.1893970000,25.7636650000]}},
{"type":"Feature", "id": 4209, "properties": { "Company": "PRGX Global, Inc.", "Ticker": "PRGX", "Market_Cap": "Micro-Cap (<$200M)", "Street_One":"600 Galleria Parkway Southeast", "Street_Two":"", "City":"Atlanta", "State":"GA", "Region":"", "Country":"US", "Zip_Code":"30339", "Metro": "Atlanta, GA",  "url_id": "eb94d75bd2162257877d42681184f66a0821dcfe"}, "geometry": {"type":"Point","coordinates":[-84.4616621999,33.8854758000]}},
{"type":"Feature", "id": 4210, "properties": { "Company": "Martha Stewart Living Omnimedia Inc.", "Ticker": "MSO", "Market_Cap": "Micro-Cap (<$200M)", "Street_One":"601 West 26th Street", "Street_Two":"", "City":"New York", "State":"NY", "Region":"", "Country":"US", "Zip_Code":"10001", "Metro": "New York, NY",  "url_id": "d0682703ed812868a967a68e859c08cac91f0fc3"}, "geometry": {"type":"Point","coordinates":[-74.0067561000,40.7513125000]}},
{"type":"Feature", "id": 4211, "properties": { "Company": "Westmoreland Coal Co.", "Ticker": "WLB", "Market_Cap": "Micro-Cap (<$200M)", "Street_One":"9540 South Maroon Circle", "Street_Two":"", "City":"Englewood", "State":"CO", "Region":"", "Country":"US", "Zip_Code":"80112", "Metro": "Denver, CO",  "url_id": "252e51d60e71efbc463e45bf706130af4bb10f9f"}, "geometry": {"type":"Point","coordinates":[-104.8581288000,39.5404297000]}},
{"type":"Feature", "id": 4212, "properties": { "Company": "Courier Corporation", "Ticker": "CRRC", "Market_Cap": "Micro-Cap (<$200M)", "Street_One":"15 Wellman Avenue", "Street_Two":"", "City":"Chelmsford", "State":"MA", "Region":"", "Country":"US", "Zip_Code":"01863", "Metro": "Boston, MA",  "url_id": "8ccc0db7fa1f7efb84da4d2ea92e8f6d3d6fd390"}, "geometry": {"type":"Point","coordinates":[-71.3904050000,42.6449840000]}},
{"type":"Feature", "id": 4213, "properties": { "Company": "LSI Industries Inc.", "Ticker": "LYTS", "Market_Cap": "Micro-Cap (<$200M)", "Street_One":"10000 Alliance Road", "Street_Two":"", "City":"Cincinnati", "State":"OH", "Region":"", "Country":"US", "Zip_Code":"45242", "Metro": "Cincinnati, OH",  "url_id": "c2ed1642fa1d503c5317babe49f3585f9a74cfb4"}, "geometry": {"type":"Point","coordinates":[-84.3779139999,39.2430530000]}},
{"type":"Feature", "id": 4214, "properties": { "Company": "Cross Timbers Royalty Trust", "Ticker": "CRT", "Market_Cap": "Micro-Cap (<$200M)", "Street_One":"901 Main Street", "Street_Two":"", "City":"Dallas", "State":"TX", "Region":"", "Country":"US", "Zip_Code":"75202", "Metro": "Dallas, TX",  "url_id": "17730cb1f42e0863a6e8df9af6abd862811bc2e8"}, "geometry": {"type":"Point","coordinates":[-96.8037329000,32.7800830000]}},
{"type":"Feature", "id": 4215, "properties": { "Company": "New Source Energy Partners L.P.", "Ticker": "NSLP", "Market_Cap": "Micro-Cap (<$200M)", "Street_One":"914 North Broadway Avenue", "Street_Two":"", "City":"Oklahoma City", "State":"OK", "Region":"", "Country":"US", "Zip_Code":"73102", "Metro": "Oklahoma City, OK",  "url_id": "114598dd7e08c3ca9a00a098f46f4230a05dc21f"}, "geometry": {"type":"Point","coordinates":[-97.5137470000,35.4767660000]}},
{"type":"Feature", "id": 4191, "properties": { "Company": "Asta Funding Inc.", "Ticker": "ASFI", "Market_Cap": "Micro-Cap (<$200M)", "Street_One":"210 Sylvan Avenue", "Street_Two":"", "City":"Englewood Cliffs", "State":"NJ", "Region":"", "Country":"US", "Zip_Code":"07632", "Metro": "New York, NY",  "url_id": "a794669808b2d0839f655f9259aca7289e556006"}, "geometry": {"type":"Point","coordinates":[-73.9563220000,40.8717710000]}},
{"type":"Feature", "id": 4202, "properties": { "Company": "VSE Corp.", "Ticker": "VSEC", "Market_Cap": "Micro-Cap (<$200M)", "Street_One":"6348 Walker Lane", "Street_Two":"", "City":"Alexandria", "State":"VA", "Region":"", "Country":"US", "Zip_Code":"22310", "Metro": "Washington, DC",  "url_id": "361490ed0c14689c5e844bb41d7828a069b8dd54"}, "geometry": {"type":"Point","coordinates":[-77.1626239000,38.7676530000]}},
{"type":"Feature", "id": 4201, "properties": { "Company": "Altisource Residential Corporation", "Ticker": "RESI", "Market_Cap": "Micro-Cap (<$200M)", "Street_One":"Strand Street", "Street_Two":"", "City":"Frederiksted", "State":"ST CROIX", "Region":"", "Country":"VI", "Zip_Code":"00840", "Metro": "Washington, DC",  "url_id": "556b8e718328c9ae574035a402e224411746f5a9"}, "geometry": {"type":"Point","coordinates":[-64.8832216999,17.7112298000]}},
{"type":"Feature", "id": 4200, "properties": { "Company": "Delta Natural Gas Company, Inc.", "Ticker": "DGAS", "Market_Cap": "Micro-Cap (<$200M)", "Street_One":"3617 Lexington Road", "Street_Two":"", "City":"Winchester", "State":"KY", "Region":"", "Country":"US", "Zip_Code":"40391", "Metro": "Louisville, KY",  "url_id": "cd925afd2cd1df2d15a9f1ce620c03138a048f25"}, "geometry": {"type":"Point","coordinates":[-84.2607484999,38.0227292000]}},
{"type":"Feature", "id": 4199, "properties": { "Company": "Daily Journal Corp.", "Ticker": "DJCO", "Market_Cap": "Micro-Cap (<$200M)", "Street_One":"915 East 1st Street", "Street_Two":"", "City":"Los Angeles", "State":"CA", "Region":"", "Country":"US", "Zip_Code":"90012", "Metro": "Los Angeles, CA",  "url_id": "111d9c76c17629d530cc0ca4392a38dc9357761a"}, "geometry": {"type":"Point","coordinates":[-118.2333052000,34.0487173000]}},
{"type":"Feature", "id": 4198, "properties": { "Company": "Sparton Corp.", "Ticker": "SPA", "Market_Cap": "Micro-Cap (<$200M)", "Street_One":"425 North Martingale Road", "Street_Two":"", "City":"Schaumburg", "State":"IL", "Region":"", "Country":"US", "Zip_Code":"60173", "Metro": "Chicago, IL",  "url_id": "7baf3fcba039dce3c3c409eb3060f6ed207763bf"}, "geometry": {"type":"Point","coordinates":[-88.0343190000,42.0360540000]}},
{"type":"Feature", "id": 4197, "properties": { "Company": "Simplicity Bancorp, Inc.", "Ticker": "SMPL", "Market_Cap": "Micro-Cap (<$200M)", "Street_One":"1359 North Grand Avenue", "Street_Two":"", "City":"Covina", "State":"CA", "Region":"", "Country":"US", "Zip_Code":"91724", "Metro": "Los Angeles, CA",  "url_id": "8428d861d0e50cf305d1c8ff165f7cd47164d1da"}, "geometry": {"type":"Point","coordinates":[-117.8739350000,34.1045460000]}},
{"type":"Feature", "id": 4196, "properties": { "Company": "Uranium Energy Corp.", "Ticker": "UEC", "Market_Cap": "Micro-Cap (<$200M)", "Street_One":"500 North Shoreline Boulevard", "Street_Two":"", "City":"Corpus Christi", "State":"TX", "Region":"", "Country":"US", "Zip_Code":"78401", "Metro": "San Antonio, TX",  "url_id": "1afe93384fe3eb523f2d6f34b3e0b855335625e5"}, "geometry": {"type":"Point","coordinates":[-97.3920220000,27.7963580000]}},
{"type":"Feature", "id": 4195, "properties": { "Company": "Cenveo Inc.", "Ticker": "CVO", "Market_Cap": "Micro-Cap (<$200M)", "Street_One":"201 Broad Street", "Street_Two":"", "City":"Stamford", "State":"CT", "Region":"", "Country":"US", "Zip_Code":"06901", "Metro": "Stamford, CT",  "url_id": "bf03c1911824871b4f84d3bcb2ba13e05ea89b59"}, "geometry": {"type":"Point","coordinates":[-73.5337400000,41.0553103000]}},
{"type":"Feature", "id": 4194, "properties": { "Company": "A. H. Belo Corporation", "Ticker": "AHC", "Market_Cap": "Micro-Cap (<$200M)", "Street_One":"508 Young Street", "Street_Two":"", "City":"Dallas", "State":"TX", "Region":"", "Country":"US", "Zip_Code":"75202", "Metro": "Dallas, TX",  "url_id": "46c7baef6e54713bc69c280fadcd0d6ea99f0e35"}, "geometry": {"type":"Point","coordinates":[-96.8057779999,32.7745590000]}},
{"type":"Feature", "id": 4193, "properties": { "Company": "ModusLink Global Solutions, Inc.", "Ticker": "MLNK", "Market_Cap": "Micro-Cap (<$200M)", "Street_One":"1601 Trapelo Road", "Street_Two":"", "City":"Waltham", "State":"MA", "Region":"", "Country":"US", "Zip_Code":"02451", "Metro": "Boston, MA",  "url_id": "31eaadb61ff15e0de56c645a193b65a96a432dc5"}, "geometry": {"type":"Point","coordinates":[-71.2589059000,42.4176557000]}},
{"type":"Feature", "id": 4192, "properties": { "Company": "Acorn Energy, Inc.", "Ticker": "ACFN", "Market_Cap": "Micro-Cap (<$200M)", "Street_One":"3903 Centerville Road", "Street_Two":"", "City":"Wilmington", "State":"DE", "Region":"", "Country":"US", "Zip_Code":"19807", "Metro": "Wilmington, DE",  "url_id": "f9ee029731095509b4eadca4cffef2b3a52de95d"}, "geometry": {"type":"Point","coordinates":[-75.6220055000,39.7834035000]}},
{"type":"Feature", "id": 4184, "properties": { "Company": "Hyde Park Acquisition Corp. II", "Ticker": "HPAC", "Market_Cap": "Micro-Cap (<$200M)", "Street_One":"500 5th Avenue", "Street_Two":"", "City":"New York", "State":"NY", "Region":"", "Country":"US", "Zip_Code":"10110", "Metro": "New York, NY",  "url_id": "93019497c379083b9f73d7c7d80c22e2a9e207e1"}, "geometry": {"type":"Point","coordinates":[-73.9812070000,40.7539370000]}},
{"type":"Feature", "id": 4190, "properties": { "Company": "Eurasian Minerals Inc.", "Ticker": "EMXX", "Market_Cap": "Micro-Cap (<$200M)", "Street_One":"543 Granville Street", "Street_Two":"", "City":"Vancouver", "State":"BC", "Region":"", "Country":"CA", "Zip_Code":"V6C 1X8", "Metro": "Vancouver, BC",  "url_id": "ef7cf19656ce9ebfc103716e5802aa64436cdee2"}, "geometry": {"type":"Point","coordinates":[-123.1158967000,49.2843723000]}},
{"type":"Feature", "id": 4189, "properties": { "Company": "National Technical Systems Inc.", "Ticker": "NTSC", "Market_Cap": "Micro-Cap (<$200M)", "Street_One":"24007 Ventura Boulevard", "Street_Two":"", "City":"Calabasas", "State":"CA", "Region":"", "Country":"US", "Zip_Code":"91302", "Metro": "Los Angeles, CA",  "url_id": "8004c0507c56e70e4a7b608bfade26e542a69e1e"},